[{"name":"Wetpaint","city":"Seattle","founded_year":2005,"location":{"type":"Point","coordinates":[-122.333253,47.603122]}},{"name":"Wetpaint","city":"New York","founded_year":2005,"location":{"type":"Point","coordinates":[-73.9964312,40.7237306]}},{"name":"Digg","city":"San Francisco","founded_year":2004,"location":{"type":"Point","coordinates":[-122.394523,37.764726]}},{"name":"Geni","city":"West Hollywood","founded_year":2006,"location":{"type":"Point","coordinates":[-118.393064,34.090368]}},{"name":"Gizmoz","city":"Menlo Park","founded_year":2003,"location":{"type":"Point","coordinates":[-122.169472,37.48413]}},{"name":"Scribd","city":"San Francisco","founded_year":2007,"location":{"type":"Point","coordinates":[-122.404052,37.789634]}},{"name":"Slacker","city":"San Diego","founded_year":2006,"location":{"type":"Point","coordinates":[-117.081406,33.022176]}},{"name":"MeetMoi","city":"New York City","founded_year":2007,"location":{"type":"Point","coordinates":[-73.985506,40.757929]}},{"name":"Joost","city":"New York","founded_year":2006,"location":{"type":"Point","coordinates":[-74.0094471,40.7464969]}},{"name":"Twitter","city":"San Francisco","founded_year":2006,"location":{"type":"Point","coordinates":[-122.4169244,37.7768052]}},{"name":"Babelgum","city":"London","founded_year":2007,"location":{"type":"Point","coordinates":[-6.267494,53.344104]}},{"name":"Facebook","city":"Menlo Park","founded_year":2004,"location":{"type":"Point","coordinates":[-122.151801,37.41605]}},{"name":"Facebook","city":"Dublin","founded_year":2004,"location":{"type":"Point","coordinates":[-6.267494,53.344104]}},{"name":"Facebook","city":"New York","founded_year":2004,"location":{"type":"Point","coordinates":[-73.9792469,40.7557162]}},{"name":"Powerset","city":"San Francisco","founded_year":2006,"location":{"type":"Point","coordinates":[-122.395289,37.778613]}},{"name":"AddThis","city":"Vienna","founded_year":2004,"location":{"type":"Point","coordinates":[-77.245195,38.926172]}},{"name":"AddThis","city":"New York","founded_year":2004,"location":{"type":"Point","coordinates":[-73.996876,40.724604]}},{"name":"AddThis","city":"Culver City","founded_year":2004,"location":{"type":"Point","coordinates":[-118.380954,34.0263021]}},{"name":"AddThis","city":"Troy","founded_year":2004,"location":{"type":"Point","coordinates":[-83.167884,42.557958]}},{"name":"OpenX","city":"Pasadena","founded_year":2008,"location":{"type":"Point","coordinates":[-118.1327468,34.1494713]}},{"name":"Mahalo","city":"Culver City","founded_year":2007,"location":{"type":"Point","coordinates":[-118.487267,34.017606]}},{"name":"Veoh","city":"San Diego","founded_year":2004,"location":{"type":"Point","coordinates":[-117.20834,32.902266]}},{"name":"Kyte","city":"San Francisco","founded_year":2006,"location":{"type":"Point","coordinates":[-122.409173,37.788482]}},{"name":"Thoof","city":"Austin","founded_year":2006,"location":{"type":"Point","coordinates":[-97.745209,30.268735]}},{"name":"Jingle Networks","city":"New York","founded_year":2005,"location":{"type":"Point","coordinates":[-122.173887,37.480999]}},{"name":"Wesabe","city":"San Francisco","founded_year":2005,"location":{"type":"Point","coordinates":[-122.402567,37.793148]}},{"name":"Jangl SMS","city":"Pleasanton","founded_year":2005,"location":{"type":"Point","coordinates":[-121.907768,37.697805]}},{"name":"LifeLock","city":"Tempe","founded_year":2005,"location":{"type":"Point","coordinates":[-111.938739,33.429859]}},{"name":"Prosper","city":"San Francisco","founded_year":2006,"location":{"type":"Point","coordinates":[-122.402524,37.78976]}},{"name":"Jajah","city":"Mountain View","founded_year":2005,"location":{"type":"Point","coordinates":[-122.0899512,37.4233896]}},{"name":"YouTube","city":"San Bruno","founded_year":2005,"location":{"type":"Point","coordinates":[-122.426804,37.627971]}},{"name":"blogTV","city":"Ramat Gan","founded_year":2006,"location":{"type":"Point","coordinates":[34.851612,31.046051]}},{"name":"Skype","city":"Luxembourg City","founded_year":2003,"location":{"type":"Point","coordinates":[-0.131916,51.518132]}},{"name":"Livestream","city":"New York","founded_year":2007,"location":{"type":"Point","coordinates":[-73.995625,40.726155]}},{"name":"AdaptiveBlue","city":"NYC","founded_year":2007,"location":{"type":"Point","coordinates":[-74.3372,40.801358]}},{"name":"Pando Networks","city":"New York","founded_year":2004,"location":{"type":"Point","coordinates":[-73.99873,40.722655]}},{"name":"Ustream","city":"San Francisco","founded_year":2007,"location":{"type":"Point","coordinates":[-122.07948,37.392936]}},{"name":"GrandCentral","city":"Fremont","founded_year":2006,"location":{"type":"Point","coordinates":[-121.932202,37.465645]}},{"name":"Jobster","city":"Seattle","founded_year":2004,"location":{"type":"Point","coordinates":[-122.357242,47.617682]}},{"name":"Revision3","city":"San Francisco","founded_year":2005,"location":{"type":"Point","coordinates":[-122.388243,37.757758]}},{"name":"Spock","city":"SCHUYLER LAKE","founded_year":2006,"location":{"type":"Point","coordinates":[-122.217964,37.488336]}},{"name":"Wize","city":"Burlingame","founded_year":2006,"location":{"type":"Point","coordinates":[-122.302262,37.559287]}},{"name":"SodaHead","city":"Encino","founded_year":2007,"location":{"type":"Point","coordinates":[-119.306607,37.269175]}},{"name":"CastTV","city":"San Francisco","founded_year":2006,"location":{"type":"Point","coordinates":[-122.393913,37.780716]}},{"name":"iSkoot","city":"Cambridge","founded_year":2005,"location":{"type":"Point","coordinates":[-71.118487,42.375392]}},{"name":"iSkoot","city":"San Francisco","founded_year":2005,"location":{"type":"Point","coordinates":[-122.396744,37.780134]}},{"name":"EQO","city":"Vancouver","founded_year":2006,"location":{"type":"Point","coordinates":[-123.138565,49.263588]}},{"name":"SellABand","city":"46395 Bocholt","founded_year":2006,"location":{"type":"Point","coordinates":[6.553452,51.808933]}},{"name":"Funny Or Die","city":"San Mateo","founded_year":2007,"location":{"type":"Point","coordinates":[-122.137444,37.421621]}},{"name":"Zlio","city":"Paris","founded_year":2005,"location":{"type":"Point","coordinates":[2.381836,48.862825]}},{"name":"Mashery","city":"San Francisco","founded_year":2006,"location":{"type":"Point","coordinates":[-122.4038047,37.7870842]}},{"name":"Yelp","city":"San Francisco","founded_year":2004,"location":{"type":"Point","coordinates":[-122.402195,37.786183]}},{"name":"Yapta","city":"Seattle","founded_year":2007,"location":{"type":"Point","coordinates":[-122.334264,47.599925]}},{"name":"Wakoopa","city":"Amsterdam","founded_year":2007,"location":{"type":"Point","coordinates":[4.8948623,52.3745228]}},{"name":"Coghead","city":"Redwood City","founded_year":2003,"location":{"type":"Point","coordinates":[-122.221717,37.476479]}},{"name":"Farecast","city":"Seattle","founded_year":2003,"location":{"type":"Point","coordinates":[-122.359397,47.620982]}},{"name":"KickApps","city":"New York","founded_year":2004,"location":{"type":"Point","coordinates":[-73.9843328,40.7516611]}},{"name":"KickApps","city":"Venice","founded_year":2004,"location":{"type":"Point","coordinates":[-118.468707,33.991101]}},{"name":"KickApps","city":"San Francisco","founded_year":2004,"location":{"type":"Point","coordinates":[-122.4016144,37.7891086]}},{"name":"KickApps","city":"London","founded_year":2004,"location":{"type":"Point","coordinates":[-0.1356235,51.5094731]}},{"name":"Pageflakes","city":"San Francisco","founded_year":2006,"location":{"type":"Point","coordinates":[-122.414689,37.758113]}},{"name":"RockYou","city":"Redwood City","founded_year":2005,"location":{"type":"Point","coordinates":[-122.206893,37.484619]}},{"name":"Swivel","city":"San Francisco","founded_year":2005,"location":{"type":"Point","coordinates":[-122.395184,37.789268]}},{"name":"Netvibes","city":"Paris","founded_year":2005,"location":{"type":"Point","coordinates":[2.34668,48.870806]}},{"name":"Slide","city":"San Francisco","founded_year":2005,"location":{"type":"Point","coordinates":[-122.392144,37.781427]}},{"name":"Bebo","city":"San Francisco","founded_year":2005,"location":{"type":"Point","coordinates":[-122.401116,37.782103]}},{"name":"WeFi","city":"Fairfax","founded_year":2006,"location":{"type":"Point","coordinates":[-95.712891,37.09024]}},{"name":"FeedBurner","city":"Chicago","founded_year":2004,"location":{"type":"Point","coordinates":[-87.628912,41.889474]}},{"name":"TVtrip","city":"Paris","founded_year":2007,"location":{"type":"Point","coordinates":[2.350987,48.856667]}},{"name":"Dogster","city":"San Francisco","founded_year":2004,"location":{"type":"Point","coordinates":[-122.400909,37.762681]}},{"name":"TheFind","city":"Mountain View","founded_year":2006,"location":{"type":"Point","coordinates":[-122.073463,37.391502]}},{"name":"adBrite","city":"San Francisco","founded_year":2003,"location":{"type":"Point","coordinates":[-122.40184,37.779026]}},{"name":"Sway","city":"Middleton","founded_year":2004,"location":{"type":"Point","coordinates":[-89.522805,43.090756]}},{"name":"Newsvine","city":"Seattle","founded_year":2005,"location":{"type":"Point","coordinates":[-122.358484,47.618599]}},{"name":"Eventbrite","city":"San Francisco","founded_year":2006,"location":{"type":"Point","coordinates":[-122.39071,37.779507]}},{"name":"Meebo","city":"Mountain View","founded_year":2005,"location":{"type":"Point","coordinates":[-122.079017,37.393679]}},{"name":"FlickIM","city":"Berkeley","founded_year":2006,"location":{"type":"Point","coordinates":[-122.269259,37.870744]}},{"name":"Loomia","city":"San Francisco","founded_year":2004,"location":{"type":"Point","coordinates":[-122.404869,37.796396]}},{"name":"Terabitz","city":"Palo Alto","founded_year":2006,"location":{"type":"Point","coordinates":[-122.159928,37.437328]}},{"name":"LinkedIn","city":"Mountain View","founded_year":2003,"location":{"type":"Point","coordinates":[-122.073635,37.423258]}},{"name":"Box","city":"Los Altos","founded_year":2005,"location":{"type":"Point","coordinates":[-122.143701,37.425801]}},{"name":"Carbonite","city":"Boston","founded_year":2006,"location":{"type":"Point","coordinates":[-71.076869,42.350571]}},{"name":"Conduit","city":"Foster City","founded_year":2005,"location":{"type":"Point","coordinates":[-122.325248,37.561877]}},{"name":"GigaOM","city":"San Francisco","founded_year":2006,"location":{"type":"Point","coordinates":[-122.419204,37.775196]}},{"name":"GigaOM","city":"New York","founded_year":2006,"location":{"type":"Point","coordinates":[-74.0059731,40.7143528]}},{"name":"Kaboodle","city":"Sunnyvale","founded_year":2005,"location":{"type":"Point","coordinates":[-122.036301,37.382162]}},{"name":"coComment","city":"Geneva","founded_year":2006,"location":{"type":"Point","coordinates":[6.139959,46.20381]}},{"name":"Wink","city":"Mountain View","founded_year":2004,"location":{"type":"Point","coordinates":[-122.072981,37.40047]}},{"name":"Hotelicopter","city":"Charlottesville","founded_year":2006,"location":{"type":"Point","coordinates":[-78.48158,38.030823]}},{"name":"Seesmic","city":"San Francisco","founded_year":2007,"location":{"type":"Point","coordinates":[-122.419204,37.775196]}},{"name":"Redfin","city":"Seattle","founded_year":2004,"location":{"type":"Point","coordinates":[-122.333253,47.603122]}},{"name":"Zvents","city":"San Mateo","founded_year":2005,"location":{"type":"Point","coordinates":[-122.301534,37.553121]}},{"name":"Eventful","city":"San Diego","founded_year":2004,"location":{"type":"Point","coordinates":[-117.206292,32.872081]}},{"name":"Oodle","city":"San Mateo","founded_year":2004,"location":{"type":"Point","coordinates":[-122.324621,37.563585]}},{"name":"oDesk","city":"Redwood City","founded_year":2005,"location":{"type":"Point","coordinates":[-122.178557,37.479952]}},{"name":"ooma","city":"Palo Alto","founded_year":2004,"location":{"type":"Point","coordinates":[-122.116026,37.451958]}},{"name":"Simply Hired","city":"Sunnyvale","founded_year":2004,"location":{"type":"Point","coordinates":[-122.0780632,37.4219165]}},{"name":"GoingOn","city":"San Francisco","founded_year":2008,"location":{"type":"Point","coordinates":[-122.392142,37.782263]}},{"name":"Flixster","city":"San Francisco","founded_year":2006,"location":{"type":"Point","coordinates":[-122.406676,37.766909]}},{"name":"spigit","city":"Pleasanton","founded_year":2006,"location":{"type":"Point","coordinates":[-121.8731805,37.6637279]}},{"name":"spigit","city":"Reston","founded_year":2006,"location":{"type":"Point","coordinates":[-77.3592746,38.9590083]}},{"name":"spigit","city":"London","founded_year":2006,"location":{"type":"Point","coordinates":[-0.1394759,51.5170385]}},{"name":"Bazaarvoice","city":"Austin","founded_year":2005,"location":{"type":"Point","coordinates":[-97.717667,30.407545]}},{"name":"hi5","city":"San Francisco","founded_year":2003,"location":{"type":"Point","coordinates":[-122.400558,37.788668]}},{"name":"ScanScout","city":"Boston","founded_year":2005,"location":{"type":"Point","coordinates":[-71.051931,42.340889]}},{"name":"ScanScout","city":"New York","founded_year":2005,"location":{"type":"Point","coordinates":[-73.993158,40.739833]}},{"name":"ScanScout","city":"Los Angeles","founded_year":2005,"location":{"type":"Point","coordinates":[-118.459995,34.050887]}},{"name":"Indeed","city":"Stamford","founded_year":2004,"location":{"type":"Point","coordinates":[-73.558082,41.038155]}},{"name":"Tagged","city":"San Francisco","founded_year":2004,"location":{"type":"Point","coordinates":[-122.4186,37.7753]}},{"name":"Jaxtr","city":"Menlo Park","founded_year":2005,"location":{"type":"Point","coordinates":[-122.18676,37.451026]}},{"name":"introNetworks","city":"Montecito","founded_year":2003,"location":{"type":"Point","coordinates":[-119.641821,34.42071]}},{"name":"Respectance","city":"San Mateo","founded_year":2006,"location":{"type":"Point","coordinates":[-122.321836,37.55909]}},{"name":"Curse","city":"San Francisco","founded_year":2006,"location":{"type":"Point","coordinates":[-122.399972,37.787092]}},{"name":"PeerMe","city":"Mountain View","founded_year":2004,"location":{"type":"Point","coordinates":[-122.090188,37.419819]}},{"name":"eBuddy","city":"Amsterdam","founded_year":2003,"location":{"type":"Point","coordinates":[4.8919457,52.3640933]}},{"name":"eBuddy","city":"San Francisco","founded_year":2003,"location":{"type":"Point","coordinates":[-122.410943,37.787683]}},{"name":"eBuddy","city":"Singapore","founded_year":2003,"location":{"type":"Point","coordinates":[-0.126236,51.500152]}},{"name":"Kiptronic","city":"San Francisco","founded_year":2005,"location":{"type":"Point","coordinates":[-122.402349,37.792394]}},{"name":"Grockit","city":"San Francisco","founded_year":2006,"location":{"type":"Point","coordinates":[-122.419204,37.775196]}},{"name":"Vuze","city":"San Mateo","founded_year":2005,"location":{"type":"Point","coordinates":[-122.2262606,37.4858654]}},{"name":"Phonezoo","city":"Sunnyvale","founded_year":2006,"location":{"type":"Point","coordinates":[-121.991471,37.386376]}},{"name":"Wishpot","city":"Seattle","founded_year":2006,"location":{"type":"Point","coordinates":[-122.347533,47.620716]}},{"name":"PodTech","city":"Palo Alto","founded_year":2005,"location":{"type":"Point","coordinates":[-122.154176,37.408256]}},{"name":"NowPublic","city":"Vancouver","founded_year":2005,"location":{"type":"Point","coordinates":[-123.103986,49.283376]}},{"name":"Crackle","city":"Culver City","founded_year":2004,"location":{"type":"Point","coordinates":[-118.401579,34.017506]}},{"name":"Lotame","city":"Columbia","founded_year":2006,"location":{"type":"Point","coordinates":[-76.77514,39.205649]}},{"name":"Lotame","city":"New York","founded_year":2006,"location":{"type":"Point","coordinates":[-73.995487,40.753631]}},{"name":"Lotame","city":"Cambridge","founded_year":2006,"location":{"type":"Point","coordinates":[-71.056604,42.359146]}},{"name":"Rebtel","city":"Nacka Strand","founded_year":2006,"location":{"type":"Point","coordinates":[18.1582777,59.3167843]}},{"name":"BuddyTV","city":"Seattle","founded_year":2005,"location":{"type":"Point","coordinates":[-122.356756,47.61968]}},{"name":"Retrevo","city":"Sunnyvale","founded_year":2006,"location":{"type":"Point","coordinates":[-122.034021,37.368594]}},{"name":"Hightail","city":"Campbell","founded_year":2004,"location":{"type":"Point","coordinates":[-121.935688,37.288974]}},{"name":"Brightcove","city":"Cambridge","founded_year":2004,"location":{"type":"Point","coordinates":[-71.086596,42.362993]}},{"name":"Nimbuzz","city":"Capelle a\/d IJssel","founded_year":2006,"location":{"type":"Point","coordinates":[4.5464658,51.9122575]}},{"name":"Tangler","city":"Mountain View","founded_year":2006,"location":{"type":"Point","coordinates":[-122.084171,37.386665]}},{"name":"TalkPlus","city":"San Mateo","founded_year":2004,"location":{"type":"Point","coordinates":[-122.300246,37.553743]}},{"name":"obopay","city":"Redwood City","founded_year":2005,"location":{"type":"Point","coordinates":[-122.258037,37.524729]}},{"name":"PermissionTV","city":"Waltham","founded_year":2005,"location":{"type":"Point","coordinates":[-71.258466,42.417268]}},{"name":"Rocketboom","city":"New York","founded_year":2007,"location":{"type":"Point","coordinates":[-73.97785,40.797364]}},{"name":"IMVU","city":"Mountain View","founded_year":2004,"location":{"type":"Point","coordinates":[-122.0727749,37.3927975]}},{"name":"Nirvanix","city":"San Diego","founded_year":2007,"location":{"type":"Point","coordinates":[-117.210595,32.877656]}},{"name":"Scrybe","city":"San Francisco","founded_year":2007,"location":{"type":"Point","coordinates":[-74.761403,40.270666]}},{"name":"Aniboom","city":null,"founded_year":2006,"location":{"type":"Point","coordinates":[34.851612,31.046051]}},{"name":"Techstars","city":"Boulder","founded_year":2006,"location":{"type":"Point","coordinates":[-105.276843,40.010492]}},{"name":"Viagogo","city":"San Francisco","founded_year":2005,"location":{"type":"Point","coordinates":[-0.126236,51.500152]}},{"name":"KnockaTV","city":"","founded_year":2007,"location":{"type":"Point","coordinates":[34.851612,31.046051]}},{"name":"Echo","city":"San francisco","founded_year":2007,"location":{"type":"Point","coordinates":[-122.1879633,38.0729365]}},{"name":"GreatCall","city":"San Diego","founded_year":2005,"location":{"type":"Point","coordinates":[-117.265191,32.964294]}},{"name":"Revver","city":"Los Angeles","founded_year":2004,"location":{"type":"Point","coordinates":[-118.243425,34.052187]}},{"name":"Metacafe","city":"San Francisco","founded_year":2003,"location":{"type":"Point","coordinates":[-122.159928,37.437328]}},{"name":"ChaCha","city":"Carmel","founded_year":2005,"location":{"type":"Point","coordinates":[-86.130347,39.998641]}},{"name":"Sportingo","city":null,"founded_year":2006,"location":{"type":"Point","coordinates":[-96.76492,17.08881]}},{"name":"Flock","city":"Menlo Park","founded_year":2005,"location":{"type":"Point","coordinates":[-122.228843,37.491356]}},{"name":"Kontera","city":"San Francisco","founded_year":2003,"location":{"type":"Point","coordinates":[-122.411157,37.767575]}},{"name":"Dropbox","city":"San Francisco","founded_year":2007,"location":{"type":"Point","coordinates":[-122.4084994,37.7909427]}},{"name":"TokBox","city":"San Francisco","founded_year":2007,"location":{"type":"Point","coordinates":[-122.39071,37.779507]}},{"name":"Sampa","city":"Redmond","founded_year":2005,"location":{"type":"Point","coordinates":[-122.135521,47.682233]}},{"name":"Yola","city":"San Francisco","founded_year":2007,"location":{"type":"Point","coordinates":[-122.3954751,37.7911148]}},{"name":"Kongregate","city":"San Francisco","founded_year":2006,"location":{"type":"Point","coordinates":[-122.401245,37.786942]}},{"name":"BitTorrent","city":"San Francisco","founded_year":2004,"location":{"type":"Point","coordinates":[-122.394668,37.790998]}},{"name":"Inneractive","city":"San Mateo","founded_year":2007,"location":{"type":"Point","coordinates":[-122.3229235,37.5646055]}},{"name":"DanceJam","city":"San Francisco","founded_year":2007,"location":{"type":"Point","coordinates":[-122.407959,37.781557]}},{"name":"Filtrbox","city":"Palo Alto","founded_year":2007,"location":{"type":"Point","coordinates":[-105.276843,40.010492]}},{"name":"Brightkite","city":"Burlingame","founded_year":2007,"location":{"type":"Point","coordinates":[-104.982256,39.762314]}},{"name":"Cloudant","city":"Boston","founded_year":2008,"location":{"type":"Point","coordinates":[-71.05781,42.35892]}},{"name":"GoFish","city":null,"founded_year":2003,"location":{"type":"Point","coordinates":[-95.712891,37.09024]}},{"name":"Kiva","city":"San Francisco","founded_year":2005,"location":{"type":"Point","coordinates":[-122.4147,37.762125]}},{"name":"KIT digital","city":"New York","founded_year":2008,"location":{"type":"Point","coordinates":[-73.971655,40.751816]}},{"name":"KIT digital","city":"Stockholm","founded_year":2008,"location":{"type":"Point","coordinates":[18.0580765,59.3369746]}},{"name":"KIT digital","city":"Mississauga, Ontario","founded_year":2008,"location":{"type":"Point","coordinates":[-79.5983626,43.6587599]}},{"name":"Zopa","city":"London","founded_year":2005,"location":{"type":"Point","coordinates":[-0.139947,51.517904]}},{"name":"Zivity","city":"San Francisco","founded_year":2007,"location":{"type":"Point","coordinates":[-122.397593,37.789488]}},{"name":"BlueLithium","city":"San Jose","founded_year":2004,"location":{"type":"Point","coordinates":[-121.948399,37.32052]}},{"name":"Doostang","city":"Palo Alto","founded_year":2005,"location":{"type":"Point","coordinates":[-122.145783,37.427235]}},{"name":"Vlingo","city":"Cambridge","founded_year":2006,"location":{"type":"Point","coordinates":[-71.118999,42.372912]}},{"name":"Docstoc","city":"Santa Monica","founded_year":2007,"location":{"type":"Point","coordinates":[-118.495025,34.018275]}},{"name":"DotBlu","city":"San Francisco","founded_year":2007,"location":{"type":"Point","coordinates":[-95.712891,37.09024]}},{"name":"Covestor","city":"London","founded_year":2005,"location":{"type":"Point","coordinates":[-0.1433689,51.5194201]}},{"name":"Mevio","city":"San Francisco","founded_year":2004,"location":{"type":"Point","coordinates":[-122.392142,37.782263]}},{"name":"Shock Treatment Management","city":"Seattle","founded_year":2004,"location":{"type":"Point","coordinates":[-122.339859,47.610332]}},{"name":"Pluck","city":"Austin","founded_year":2003,"location":{"type":"Point","coordinates":[-97.745209,30.268735]}},{"name":"sezmi","city":"Belmont","founded_year":2007,"location":{"type":"Point","coordinates":[-122.265869,37.524422]}},{"name":"sezmi","city":"Santa Monica","founded_year":2007,"location":{"type":"Point","coordinates":[-118.453218,34.017373]}},{"name":"sezmi","city":"Fort Lauderdale","founded_year":2007,"location":{"type":"Point","coordinates":[-80.157296,26.207024]}},{"name":"NewsGator","city":"Denver","founded_year":2004,"location":{"type":"Point","coordinates":[-104.988123,39.755092]}},{"name":"Greystripe","city":"San Francisco","founded_year":2005,"location":{"type":"Point","coordinates":[-122.39323,37.710677]}},{"name":"ReachLocal","city":"London","founded_year":2004,"location":{"type":"Point","coordinates":[-72.188584,41.53155]}},{"name":"ReachLocal","city":"Toronto","founded_year":2004,"location":{"type":"Point","coordinates":[-79.338246,43.7192415]}},{"name":"TubeMogul","city":"Emeryville","founded_year":2006,"location":{"type":"Point","coordinates":[-122.286493,37.836957]}},{"name":"Trulia","city":"San Francisco","founded_year":2004,"location":{"type":"Point","coordinates":[-122.406676,37.766909]}},{"name":"SpiralFrog","city":"New York","founded_year":2004,"location":{"type":"Point","coordinates":[-95.712891,37.09024]}},{"name":"Multiply","city":"Kebayoran Lama, Jakarta Selatan","founded_year":2003,"location":{"type":"Point","coordinates":[-80.097742,26.400499]}},{"name":"Seedcamp","city":"London","founded_year":2007,"location":{"type":"Point","coordinates":[-0.1418973,51.5108803]}},{"name":"LimeLife","city":"Menlo Park","founded_year":2004,"location":{"type":"Point","coordinates":[-122.169472,37.48413]}},{"name":"LocaModa","city":"Cambridge","founded_year":2007,"location":{"type":"Point","coordinates":[-71.104329,42.358822]}},{"name":"MocoSpace","city":"Boston","founded_year":2005,"location":{"type":"Point","coordinates":[-71.058768,42.350274]}},{"name":"Yap","city":"Fort Mill","founded_year":2006,"location":{"type":"Point","coordinates":[-80.856178,35.22806]}},{"name":"Minglebox","city":"Bangalore","founded_year":2006,"location":{"type":"Point","coordinates":[77.594376,12.971606]}},{"name":"TestFreaks","city":"Stockholm","founded_year":2006,"location":{"type":"Point","coordinates":[18.0571198,59.3339908]}},{"name":"Quattro Wireless","city":"Waltham","founded_year":2006,"location":{"type":"Point","coordinates":[-71.248472,42.3729]}},{"name":"BBE","city":"New York","founded_year":2004,"location":{"type":"Point","coordinates":[-73.9874008,40.7445343]}},{"name":"Adknowledge","city":"Kansas City","founded_year":2004,"location":{"type":"Point","coordinates":[-94.597896,39.044694]}},{"name":"Adknowledge","city":"New York","founded_year":2004,"location":{"type":"Point","coordinates":[-73.992463,40.748901]}},{"name":"Adknowledge","city":"San Francisco","founded_year":2004,"location":{"type":"Point","coordinates":[-122.401406,37.78866]}},{"name":"Adknowledge","city":"Fort Myers","founded_year":2004,"location":{"type":"Point","coordinates":[-81.879069,26.580095]}},{"name":"Adknowledge","city":"Toronto","founded_year":2004,"location":{"type":"Point","coordinates":[-79.3953743,43.6474554]}},{"name":"Adknowledge","city":"Covent Garden, London","founded_year":2004,"location":{"type":"Point","coordinates":[-0.1229212,51.5114403]}},{"name":"Adknowledge","city":"Munich","founded_year":2004,"location":{"type":"Point","coordinates":[11.5582609,48.1635092]}},{"name":"Adknowledge","city":"Paris","founded_year":2004,"location":{"type":"Point","coordinates":[2.3797825,48.8506065]}},{"name":"Adknowledge","city":"Shanghai","founded_year":2004,"location":{"type":"Point","coordinates":[121.4770384,31.222622]}},{"name":"Thumbplay","city":"New York","founded_year":2004,"location":{"type":"Point","coordinates":[-73.997395,40.725435]}},{"name":"Wonga","city":"London","founded_year":2007,"location":{"type":"Point","coordinates":[-0.1626103,51.5192042]}},{"name":"SnapTell","city":"Palo Alto","founded_year":2006,"location":{"type":"Point","coordinates":[-122.128772,37.433414]}},{"name":"OnForce","city":"Lexington","founded_year":2003,"location":{"type":"Point","coordinates":[-71.262508,42.47218]}},{"name":"OMGPOP","city":"New York","founded_year":2006,"location":{"type":"Point","coordinates":[-74.001704,40.723384]}},{"name":"Spiceworks","city":"Austin","founded_year":2006,"location":{"type":"Point","coordinates":[-97.753739,30.386601]}},{"name":"Daylife","city":"New York","founded_year":2006,"location":{"type":"Point","coordinates":[-73.886452,40.643438]}},{"name":"Ooyala","city":"Mountain View","founded_year":2007,"location":{"type":"Point","coordinates":[-122.084171,37.386665]}},{"name":"MyHeritage","city":"Or Yehuda","founded_year":2005,"location":{"type":"Point","coordinates":[34.856173,32.029748]}},{"name":"SayNow","city":"Palo Alto","founded_year":2005,"location":{"type":"Point","coordinates":[-122.143915,37.42746]}},{"name":"Crunchyroll","city":"San Francisco","founded_year":2008,"location":{"type":"Point","coordinates":[-122.393229,37.781265]}},{"name":"PixSense","city":"Santa Clara","founded_year":2003,"location":{"type":"Point","coordinates":[-121.973228,37.387114]}},{"name":"Behance","city":"New York","founded_year":2006,"location":{"type":"Point","coordinates":[-74.004592,40.74406]}},{"name":"hulu","city":"Los Angeles","founded_year":2007,"location":{"type":"Point","coordinates":[-118.456806,34.031276]}},{"name":"imeem","city":"San Francisco","founded_year":2003,"location":{"type":"Point","coordinates":[-122.391236,37.779624]}},{"name":"AdMob","city":"Mountain View","founded_year":2006,"location":{"type":"Point","coordinates":[-122.324621,37.563585]}},{"name":"OrganizedWisdom","city":"New York","founded_year":2007,"location":{"type":"Point","coordinates":[-73.981709,40.775537]}},{"name":"Attributor","city":"San Mateo","founded_year":2005,"location":{"type":"Point","coordinates":[-122.228595,37.453687]}},{"name":"PeekYou","city":"New York","founded_year":2012,"location":{"type":"Point","coordinates":[-73.985506,40.757929]}},{"name":"Mozy","city":"Pleasant Grove","founded_year":2005,"location":{"type":"Point","coordinates":[-111.777531,40.357978]}},{"name":"Mixx","city":"McLean","founded_year":2007,"location":{"type":"Point","coordinates":[-79.420926,38.003376]}},{"name":"TripIt","city":"San Francisco","founded_year":2006,"location":{"type":"Point","coordinates":[-122.402021,37.764169]}},{"name":"GENWI","city":"Los Altos","founded_year":2010,"location":{"type":"Point","coordinates":[-111.9035,33.8171]}},{"name":"PubMatic","city":"Redwood City","founded_year":2006,"location":{"type":"Point","coordinates":[-122.156579,37.446668]}},{"name":"GlobalMotion","city":"Palo Alto","founded_year":2006,"location":{"type":"Point","coordinates":[-122.161247,37.445714]}},{"name":"FlowPlay","city":"Seattle","founded_year":2006,"location":{"type":"Point","coordinates":[-122.335943,47.6015315]}},{"name":"Balihoo","city":"Boise","founded_year":2004,"location":{"type":"Point","coordinates":[-116.205637,43.61295]}},{"name":"Viewpoints","city":"Chicago","founded_year":2006,"location":{"type":"Point","coordinates":[-87.63406,41.890376]}},{"name":"Smartsheet","city":"Bellevue","founded_year":2005,"location":{"type":"Point","coordinates":[-122.20052,47.617842]}},{"name":"RatePoint","city":"Needham","founded_year":2006,"location":{"type":"Point","coordinates":[-71.238524,42.296111]}},{"name":"Avvo","city":"Seattle","founded_year":2007,"location":{"type":"Point","coordinates":[-122.3396627,47.6104101]}},{"name":"ThisNext","city":"Santa Monica","founded_year":2005,"location":{"type":"Point","coordinates":[-118.493592,34.01533]}},{"name":"Tumri","city":null,"founded_year":2004,"location":{"type":"Point","coordinates":[-95.712891,37.09024]}},{"name":"ChessPark","city":"West Palm Beach","founded_year":2007,"location":{"type":"Point","coordinates":[-83.913153,43.67084]}},{"name":"OneRiot","city":"Boulder","founded_year":2006,"location":{"type":"Point","coordinates":[-105.28131,40.01621]}},{"name":"MuseStorm","city":"Sunnyvale","founded_year":2005,"location":{"type":"Point","coordinates":[-122.034021,37.368594]}},{"name":"UpDown","city":"Cambridge","founded_year":2007,"location":{"type":"Point","coordinates":[-71.118487,42.375392]}},{"name":"Eons","city":"Boston","founded_year":2005,"location":{"type":"Point","coordinates":[-71.056101,42.375219]}},{"name":"Clickable","city":"New York","founded_year":2006,"location":{"type":"Point","coordinates":[-73.9912208,40.7413559]}},{"name":"Cuil","city":"Menlo Park","founded_year":2005,"location":{"type":"Point","coordinates":[-122.166264,37.451124]}},{"name":"GamerDNA","city":"Cambridge","founded_year":2006,"location":{"type":"Point","coordinates":[-71.118487,42.375392]}},{"name":"mig33","city":"Singapore","founded_year":2005,"location":{"type":"Point","coordinates":[-122.343679,37.580304]}},{"name":"Animoto","city":"New York","founded_year":2006,"location":{"type":"Point","coordinates":[-74.000195,40.72948]}},{"name":"Webjam","city":"London","founded_year":2006,"location":{"type":"Point","coordinates":[-0.136174,51.519819]}},{"name":"SpeedDate","city":"San Mateo","founded_year":2007,"location":{"type":"Point","coordinates":[-122.285714,37.557637]}},{"name":"mEgo","city":"Los Angeles","founded_year":2005,"location":{"type":"Point","coordinates":[-118.42749,34.064491]}},{"name":"Metaplace","city":"Solana Beach","founded_year":2006,"location":{"type":"Point","coordinates":[-117.077311,33.020832]}},{"name":"BroadClip","city":"Livermore","founded_year":2006,"location":{"type":"Point","coordinates":[-121.803572,37.661237]}},{"name":"Fixya","city":"San Mateo","founded_year":2013,"location":{"type":"Point","coordinates":[-122.323895,37.566879]}},{"name":"Xobni","city":"San Francisco","founded_year":2006,"location":{"type":"Point","coordinates":[-122.404052,37.789634]}},{"name":"BuzzDash","city":"Marina del Rey","founded_year":2006,"location":{"type":"Point","coordinates":[-118.445271,33.977854]}},{"name":"Sermo","city":"Cambridge","founded_year":2006,"location":{"type":"Point","coordinates":[-71.078978,42.364367]}},{"name":"Worklight","city":"New York","founded_year":2006,"location":{"type":"Point","coordinates":[-73.976348,40.756799]}},{"name":"RingCentral","city":"San Mateo","founded_year":2003,"location":{"type":"Point","coordinates":[-122.285588,37.560155]}},{"name":"MatchMine","city":"Needham","founded_year":2007,"location":{"type":"Point","coordinates":[-71.220187,42.304545]}},{"name":"Zillow","city":"Seattle","founded_year":2005,"location":{"type":"Point","coordinates":[-122.3293984,47.6011125]}},{"name":"Mobivox","city":"Montreal","founded_year":2007,"location":{"type":"Point","coordinates":[-73.560084,45.500277]}},{"name":"PlaySpan","city":"Santa Clara","founded_year":2006,"location":{"type":"Point","coordinates":[-121.961396,37.396312]}},{"name":"3Jam","city":"San Francisco","founded_year":2005,"location":{"type":"Point","coordinates":[-122.4044034,37.765125]}},{"name":"Grouply","city":"Redwood City","founded_year":2006,"location":{"type":"Point","coordinates":[-122.211281,37.502742]}},{"name":"DocuSign","city":"Seattle","founded_year":2003,"location":{"type":"Point","coordinates":[-122.335668,47.603015]}},{"name":"Zimbra","city":"Palo Alto","founded_year":2003,"location":{"type":"Point","coordinates":[-122.285714,37.557637]}},{"name":"Wikinvest","city":"San Francisco","founded_year":2006,"location":{"type":"Point","coordinates":[-122.419204,37.775196]}},{"name":"FriendFeed","city":"Mountain View","founded_year":2007,"location":{"type":"Point","coordinates":[-122.072612,37.39248]}},{"name":"Gazelle","city":"Boston","founded_year":2006,"location":{"type":"Point","coordinates":[-71.140762,42.354022]}},{"name":"Fon","city":"Madrid","founded_year":2006,"location":{"type":"Point","coordinates":[-3.632687,40.530724]}},{"name":"Whiskey Media","city":"San Francisco","founded_year":2007,"location":{"type":"Point","coordinates":[-122.495222,37.856331]}},{"name":"RayV","city":"New York","founded_year":2005,"location":{"type":"Point","coordinates":[-73.978332,40.781159]}},{"name":"FanIQ","city":null,"founded_year":2006,"location":{"type":"Point","coordinates":[-95.712891,37.09024]}},{"name":"Uptake","city":"Palo Alto","founded_year":2008,"location":{"type":"Point","coordinates":[-122.161674,37.443058]}},{"name":"Polyvore","city":"Mountain View","founded_year":2007,"location":{"type":"Point","coordinates":[-122.083487,37.386175]}},{"name":"23andMe","city":"Mountain View","founded_year":2006,"location":{"type":"Point","coordinates":[-95.712891,37.09024]}},{"name":"AdReady","city":"Seattle","founded_year":2006,"location":{"type":"Point","coordinates":[-122.346299,47.649027]}},{"name":"Treemo Labs","city":"Seattle","founded_year":2005,"location":{"type":"Point","coordinates":[-122.347533,47.620716]}},{"name":"YuMe","city":"Redwood City","founded_year":2004,"location":{"type":"Point","coordinates":[-122.221717,37.476479]}},{"name":"Blurb","city":"San Francisco","founded_year":2005,"location":{"type":"Point","coordinates":[-122.40414,37.792968]}},{"name":"The Climate Corporation","city":"San Francisco","founded_year":2006,"location":{"type":"Point","coordinates":[-122.394354,37.782809]}},{"name":"The Climate Corporation","city":"Seattle","founded_year":2006,"location":{"type":"Point","coordinates":[-122.3331466,47.5984767]}},{"name":"Automattic","city":"San Francisco","founded_year":2005,"location":{"type":"Point","coordinates":[-122.421344,37.744274]}},{"name":"Tumblr","city":"New York","founded_year":2007,"location":{"type":"Point","coordinates":[-73.983626,40.743808]}},{"name":"Veodia","city":"San Mateo","founded_year":2006,"location":{"type":"Point","coordinates":[-122.300246,37.553743]}},{"name":"uTest","city":"Framingham","founded_year":2007,"location":{"type":"Point","coordinates":[-71.52679,42.288291]}},{"name":"Songkick","city":"London","founded_year":2007,"location":{"type":"Point","coordinates":[-0.0558343,51.54202]}},{"name":"Payoneer","city":"New York","founded_year":2005,"location":{"type":"Point","coordinates":[-73.960717,40.621591]}},{"name":"EchoSign","city":"Palo Alto","founded_year":2005,"location":{"type":"Point","coordinates":[-122.160671,37.445326]}},{"name":"Buzzwire","city":"Denver","founded_year":2007,"location":{"type":"Point","coordinates":[-104.988123,39.755092]}},{"name":"Predictify","city":"Redwood City","founded_year":2007,"location":{"type":"Point","coordinates":[-122.229161,37.486571]}},{"name":"TrialPay","city":"Mountain View","founded_year":2006,"location":{"type":"Point","coordinates":[-122.08276,37.388095]}},{"name":"Firetide","city":"Campbell","founded_year":2003,"location":{"type":"Point","coordinates":[-121.932962,37.285133]}},{"name":"BitGravity","city":"Burlingame","founded_year":2006,"location":{"type":"Point","coordinates":[-122.347654,37.590056]}},{"name":"eXelate","city":"New York","founded_year":2007,"location":{"type":"Point","coordinates":[-73.990753,40.741266]}},{"name":"eXelate","city":"San Francisco","founded_year":2007,"location":{"type":"Point","coordinates":[-122.3990501,37.787249]}},{"name":"eXelate","city":"Chicago","founded_year":2007,"location":{"type":"Point","coordinates":[-87.6517774,41.8831959]}},{"name":"eXelate","city":"Kfar-Saba","founded_year":2007,"location":{"type":"Point","coordinates":[34.9341664,32.1618634]}},{"name":"eXelate","city":"Paris","founded_year":2007,"location":{"type":"Point","coordinates":[2.3226888,48.8743443]}},{"name":"eXelate","city":"London","founded_year":2007,"location":{"type":"Point","coordinates":[-0.1326786,51.5150129]}},{"name":"blueKiwi","city":"Paris","founded_year":2006,"location":{"type":"Point","coordinates":[2.3608064,48.8599791]}},{"name":"Eurekster","city":"","founded_year":2004,"location":{"type":"Point","coordinates":[-122.40188,37.790992]}},{"name":"Gydget","city":"San Francisco","founded_year":2007,"location":{"type":"Point","coordinates":[-122.398398,37.791733]}},{"name":"Zattoo","city":"Ann Arbor","founded_year":2005,"location":{"type":"Point","coordinates":[-83.734673,42.292649]}},{"name":"Baynote","city":"San Jose","founded_year":2004,"location":{"type":"Point","coordinates":[-122.006539,37.332271]}},{"name":"Gigya","city":"Mountain View","founded_year":2006,"location":{"type":"Point","coordinates":[-122.158804,37.43938]}},{"name":"GridNetworks","city":"Seattle","founded_year":2004,"location":{"type":"Point","coordinates":[-122.336132,47.602873]}},{"name":"Songbird","city":"San Francisco","founded_year":2006,"location":{"type":"Point","coordinates":[-122.39783,37.787126]}},{"name":"SezWho","city":"Los Altos","founded_year":2006,"location":{"type":"Point","coordinates":[-122.085807,37.351894]}},{"name":"Disqus","city":"San Francisco","founded_year":2007,"location":{"type":"Point","coordinates":[-122.397672,37.786906]}},{"name":"Peer39","city":"New York","founded_year":2006,"location":{"type":"Point","coordinates":[-73.980246,40.755446]}},{"name":"Pelago","city":"Seattle","founded_year":2005,"location":{"type":"Point","coordinates":[-122.335373,47.607065]}},{"name":"Vitrue","city":"Atlanta","founded_year":2006,"location":{"type":"Point","coordinates":[-84.392198,33.756806]}},{"name":"Vitrue","city":"New York","founded_year":2006,"location":{"type":"Point","coordinates":[-74.001169,40.718888]}},{"name":"Plazes","city":"Berlin","founded_year":2006,"location":{"type":"Point","coordinates":[13.398694,52.523402]}},{"name":"Vringo","city":"New York","founded_year":2006,"location":{"type":"Point","coordinates":[-73.9717364,40.7550005]}},{"name":"Faves","city":"Seattle","founded_year":2004,"location":{"type":"Point","coordinates":[-122.334983,47.603327]}},{"name":"mDialog","city":"Toronto","founded_year":2005,"location":{"type":"Point","coordinates":[-79.364013,43.65455]}},{"name":"Evi","city":"Cambridge","founded_year":2005,"location":{"type":"Point","coordinates":[0.130647,52.195668]}},{"name":"Yedda","city":"Tel Aviv","founded_year":2006,"location":{"type":"Point","coordinates":[34.7595,32.0554]}},{"name":"Minekey","city":"Sunnyvale","founded_year":2005,"location":{"type":"Point","coordinates":[-122.012475,37.384239]}},{"name":"BrightRoll","city":"San Francisco","founded_year":2006,"location":{"type":"Point","coordinates":[-122.401144,37.794643]}},{"name":"RepairPal","city":"Emeryville","founded_year":2007,"location":{"type":"Point","coordinates":[-122.296411,37.838225]}},{"name":"Zmags","city":"Copenhagen","founded_year":2006,"location":{"type":"Point","coordinates":[12.571492,55.6839208]}},{"name":"Zmags","city":"London","founded_year":2006,"location":{"type":"Point","coordinates":[-0.1247662,51.5111369]}},{"name":"StreetFire","city":"Los Angeles","founded_year":2004,"location":{"type":"Point","coordinates":[-118.426707,33.982431]}},{"name":"Needium","city":"Montreal","founded_year":2010,"location":{"type":"Point","coordinates":[-73.5681635,45.5049305]}},{"name":"Turn","city":"Redwood City","founded_year":2004,"location":{"type":"Point","coordinates":[-122.201099,37.512253]}},{"name":"TrackVia","city":"Denver","founded_year":2006,"location":{"type":"Point","coordinates":[-105.158645,39.738499]}},{"name":"Loopt","city":"Mountain View","founded_year":2005,"location":{"type":"Point","coordinates":[-122.081625,37.384717]}},{"name":"MyBuys","city":"San Mateo","founded_year":2006,"location":{"type":"Point","coordinates":[-122.245087,37.530893]}},{"name":"MyBuys","city":"Ann Arbor","founded_year":2006,"location":{"type":"Point","coordinates":[-83.733276,42.277416]}},{"name":"Podaddies","city":"San Francisco","founded_year":2006,"location":{"type":"Point","coordinates":[-122.4099154,37.7726402]}},{"name":"Yieldex","city":"New York","founded_year":2007,"location":{"type":"Point","coordinates":[-122.42689,37.636288]}},{"name":"Vobile","city":"Santa Clara","founded_year":2005,"location":{"type":"Point","coordinates":[-121.97895,37.399208]}},{"name":"Vivox","city":"Natick","founded_year":2005,"location":{"type":"Point","coordinates":[-95.712891,37.09024]}},{"name":"Billeo","city":"Santa Clara","founded_year":2006,"location":{"type":"Point","coordinates":[-121.972128,37.385216]}},{"name":"Billeo","city":"Santa Clara","founded_year":2006,"location":{"type":"Point","coordinates":[-121.9797628,37.4069445]}},{"name":"GeoSentric","city":"Amsterdam","founded_year":2007,"location":{"type":"Point","coordinates":[-95.712891,37.09024]}},{"name":"RealSelf","city":"Seattle","founded_year":2006,"location":{"type":"Point","coordinates":[-122.347533,47.620716]}},{"name":"OurStage","city":"Chelmsford","founded_year":2006,"location":{"type":"Point","coordinates":[-71.319348,42.591704]}},{"name":"Blyk","city":"Helsinki","founded_year":2006,"location":{"type":"Point","coordinates":[-1.721287,52.146853]}},{"name":"GameLayers","city":"San Francisco","founded_year":2007,"location":{"type":"Point","coordinates":[-122.402468,37.803847]}},{"name":"Mogreet","city":"Venice","founded_year":2006,"location":{"type":"Point","coordinates":[-118.472297,33.999004]}},{"name":"Zoji","city":"Seattle","founded_year":2004,"location":{"type":"Point","coordinates":[-122.347533,47.620716]}},{"name":"Worktopia","city":"White Plains","founded_year":2004,"location":{"type":"Point","coordinates":[-73.741649,40.987453]}},{"name":"WEbook","city":"New York","founded_year":2007,"location":{"type":"Point","coordinates":[-77.095965,38.984172]}},{"name":"LucidEra","city":"San Mateo","founded_year":2005,"location":{"type":"Point","coordinates":[-122.2862187,37.5583159]}},{"name":"Splunk","city":"San Francisco","founded_year":2003,"location":{"type":"Point","coordinates":[-122.390945,37.78274]}},{"name":"xkoto","city":"Waltham","founded_year":2005,"location":{"type":"Point","coordinates":[-71.255857,42.405685]}},{"name":"TrustedID","city":"Palo Alto","founded_year":2005,"location":{"type":"Point","coordinates":[-122.255907,37.520592]}},{"name":"Youku","city":"Shanghai","founded_year":2006,"location":{"type":"Point","coordinates":[121.4384701,31.2006566]}},{"name":"SeeToo","city":"New York","founded_year":2007,"location":{"type":"Point","coordinates":[-73.996272,40.755861]}},{"name":"Seeqpod","city":"Emeryville","founded_year":2005,"location":{"type":"Point","coordinates":[-122.296342,37.8454819]}},{"name":"Songza","city":"Long Island City","founded_year":2007,"location":{"type":"Point","coordinates":[-73.9549182,40.7473113]}},{"name":"Snapvine","city":"Seattle","founded_year":2005,"location":{"type":"Point","coordinates":[-122.332904,47.598968]}},{"name":"Motionbox","city":"New York","founded_year":2006,"location":{"type":"Point","coordinates":[-73.822331,40.606061]}},{"name":"Deezer","city":"Paris","founded_year":2006,"location":{"type":"Point","coordinates":[2.3283853,48.8780596]}},{"name":"betNOW","city":"London","founded_year":2005,"location":{"type":"Point","coordinates":[-0.126389,51.511599]}},{"name":"eyeOS","city":"Barcelona","founded_year":2005,"location":{"type":"Point","coordinates":[2.1702872,41.3854855]}},{"name":"CollegeFanz","city":"Mt. Laurel","founded_year":2007,"location":{"type":"Point","coordinates":[-74.909185,39.935819]}},{"name":"Jott","city":"Seattle","founded_year":2006,"location":{"type":"Point","coordinates":[-122.327807,47.6139472]}},{"name":"divorce360","city":"North Palm Beach","founded_year":2007,"location":{"type":"Point","coordinates":[-80.058401,26.820375]}},{"name":"Kewego","city":"Paris","founded_year":2003,"location":{"type":"Point","coordinates":[2.213749,46.227638]}},{"name":"Utterz","city":"Maynard","founded_year":2007,"location":{"type":"Point","coordinates":[-71.483077,42.431555]}},{"name":"Yodle","city":"New York","founded_year":2005,"location":{"type":"Point","coordinates":[-73.9918126,40.742459]}},{"name":"Yodle","city":"Austin","founded_year":2005,"location":{"type":"Point","coordinates":[-97.731249,30.378658]}},{"name":"Yodle","city":"Charlotte","founded_year":2005,"location":{"type":"Point","coordinates":[-80.916109,35.139441]}},{"name":"Yodle","city":"Scottsdale","founded_year":2005,"location":{"type":"Point","coordinates":[-111.924855,33.464377]}},{"name":"Yodle","city":"Buford","founded_year":2005,"location":{"type":"Point","coordinates":[-84.03398,34.105226]}},{"name":"HubSpot","city":"Cambridge","founded_year":2006,"location":{"type":"Point","coordinates":[-71.118487,42.375392]}},{"name":"Intronis","city":"Boston","founded_year":2003,"location":{"type":"Point","coordinates":[-71.049124,42.351105]}},{"name":"CrossLoop","city":"Monterey","founded_year":2006,"location":{"type":"Point","coordinates":[-121.898539,36.611645]}},{"name":"iMemories","city":"Scottsdale","founded_year":2006,"location":{"type":"Point","coordinates":[-111.883237,33.639318]}},{"name":"Vidyo","city":"Hackensack","founded_year":2005,"location":{"type":"Point","coordinates":[-74.033707,40.909378]}},{"name":"Dapper","city":"San Francisco","founded_year":2006,"location":{"type":"Point","coordinates":[-122.3938931,37.7766184]}},{"name":"ClickTale","city":"Ramat Gan","founded_year":2006,"location":{"type":"Point","coordinates":[34.851612,31.046051]}},{"name":"ClickTale","city":"Ramat Gan","founded_year":2006,"location":{"type":"Point","coordinates":[34.824785,32.068424]}},{"name":"TradeKing","city":"Fort Lauderdale","founded_year":2005,"location":{"type":"Point","coordinates":[-80.1343038,26.119102]}},{"name":"Twenga","city":"Paris","founded_year":2006,"location":{"type":"Point","coordinates":[2.350987,48.856667]}},{"name":"Viadeo","city":"Paris","founded_year":2004,"location":{"type":"Point","coordinates":[2.3304161,48.8747064]}},{"name":"Shipwire","city":null,"founded_year":2006,"location":{"type":"Point","coordinates":[-95.712891,37.09024]}},{"name":"Shipwire","city":"Palo Alto","founded_year":2006,"location":{"type":"Point","coordinates":[-122.1430195,37.4418834]}},{"name":"GrubHub","city":"Chicago","founded_year":2004,"location":{"type":"Point","coordinates":[-87.649878,41.907647]}},{"name":"CafeMom","city":"New York","founded_year":2006,"location":{"type":"Point","coordinates":[-95.712891,37.09024]}},{"name":"Uversity","city":null,"founded_year":2007,"location":{"type":"Point","coordinates":[-95.712891,37.09024]}},{"name":"Uversity","city":"San Francisco","founded_year":2007,"location":{"type":"Point","coordinates":[-122.4194155,37.7749295]}},{"name":"Bahu","city":"Paris","founded_year":2007,"location":{"type":"Point","coordinates":[2.297035,48.882434]}},{"name":"BeliefNet","city":"New York","founded_year":2008,"location":{"type":"Point","coordinates":[-73.985433,40.740231]}},{"name":"Hakia","city":null,"founded_year":2004,"location":{"type":"Point","coordinates":[-95.712891,37.09024]}},{"name":"Kosmix","city":"Mountain View","founded_year":2005,"location":{"type":"Point","coordinates":[-122.0752224,37.3867729]}},{"name":"Gilt Groupe","city":"New York","founded_year":2007,"location":{"type":"Point","coordinates":[-73.9800645,40.74727]}},{"name":"Goodreads","city":"Santa Monica","founded_year":2007,"location":{"type":"Point","coordinates":[-118.495981,34.01052]}},{"name":"HubPages","city":"San Francisco","founded_year":2006,"location":{"type":"Point","coordinates":[-122.3991505,37.7876952]}},{"name":"Jobvite","city":"Burlingame","founded_year":2003,"location":{"type":"Point","coordinates":[-122.398503,37.789034]}},{"name":"Ribbit","city":"Mountain View","founded_year":2005,"location":{"type":"Point","coordinates":[-122.084171,37.386665]}},{"name":"ideeli","city":"New York","founded_year":2007,"location":{"type":"Point","coordinates":[-73.990396,40.755978]}},{"name":"Streamezzo","city":"Paris","founded_year":2004,"location":{"type":"Point","coordinates":[2.291225,48.872159]}},{"name":"WeShow","city":"New York","founded_year":2007,"location":{"type":"Point","coordinates":[-73.973072,40.752516]}},{"name":"Flixwagon","city":"Tel-Aviv","founded_year":2007,"location":{"type":"Point","coordinates":[34.7595,32.0554]}},{"name":"Shoeboxed","city":"Durham","founded_year":2007,"location":{"type":"Point","coordinates":[-78.902115,35.996157]}},{"name":"Shoeboxed","city":"Durham","founded_year":2007,"location":{"type":"Point","coordinates":[-78.8986,35.9939]}},{"name":"PlayFirst","city":"San Francisco","founded_year":2004,"location":{"type":"Point","coordinates":[-122.40185,37.790346]}},{"name":"RipCode","city":"Richardson","founded_year":2006,"location":{"type":"Point","coordinates":[-96.70737,32.959908]}},{"name":"RipCode","city":"Austin","founded_year":2006,"location":{"type":"Point","coordinates":[-97.748795,30.402252]}},{"name":"Qik","city":"Redwood City","founded_year":2006,"location":{"type":"Point","coordinates":[-122.230116,37.486368]}},{"name":"Mobissimo","city":"San Francisco","founded_year":2003,"location":{"type":"Point","coordinates":[-122.39897,37.78624]}},{"name":"Libersy","city":"Almere","founded_year":2006,"location":{"type":"Point","coordinates":[4.890951,52.373812]}},{"name":"Acquia","city":"Burlington","founded_year":2007,"location":{"type":"Point","coordinates":[-71.137784,42.524527]}},{"name":"KAYAK","city":"Norwalk","founded_year":2004,"location":{"type":"Point","coordinates":[-73.4168779,41.1010914]}},{"name":"Chumby","city":"San Diego","founded_year":2005,"location":{"type":"Point","coordinates":[-117.240799,32.939673]}},{"name":"GridPoint","city":"Arlington","founded_year":2003,"location":{"type":"Point","coordinates":[-77.091562,38.888107]}},{"name":"Kior","city":"Pasadena","founded_year":2007,"location":{"type":"Point","coordinates":[-95.712891,37.09024]}},{"name":"Causes","city":"San Francisco","founded_year":2007,"location":{"type":"Point","coordinates":[-122.272513,37.870258]}},{"name":"Etsy","city":"Brooklyn","founded_year":2005,"location":{"type":"Point","coordinates":[-73.983268,40.694731]}},{"name":"Challenge Games","city":"Austin","founded_year":2006,"location":{"type":"Point","coordinates":[-97.740651,30.268236]}},{"name":"EditGrid","city":"","founded_year":2003,"location":{"type":"Point","coordinates":[114.109497,22.396428]}},{"name":"Tesla Motors","city":"Palo Alto","founded_year":2003,"location":{"type":"Point","coordinates":[-122.245323,37.496737]}},{"name":"SimulScribe","city":"New York","founded_year":2003,"location":{"type":"Point","coordinates":[-73.969296,40.762673]}},{"name":"Delve Networks","city":"Seattle","founded_year":2006,"location":{"type":"Point","coordinates":[-122.334117,47.600818]}},{"name":"Bunchball","city":"Redwood City","founded_year":2005,"location":{"type":"Point","coordinates":[-121.9479223,37.3208403]}},{"name":"TravelMuse","city":"New York","founded_year":2007,"location":{"type":"Point","coordinates":[-122.117418,37.402802]}},{"name":"Scrapblog","city":"San Francisco","founded_year":2006,"location":{"type":"Point","coordinates":[-80.25468,25.752358]}},{"name":"Blekko","city":"Redwood Shores","founded_year":2007,"location":{"type":"Point","coordinates":[-95.712891,37.09024]}},{"name":"LifeOnKey","city":"New York","founded_year":2003,"location":{"type":"Point","coordinates":[-95.712891,37.09024]}},{"name":"Meraki","city":"San Francisco","founded_year":2006,"location":{"type":"Point","coordinates":[-122.072517,37.392443]}},{"name":"SugarCRM","city":"Cupertino","founded_year":2004,"location":{"type":"Point","coordinates":[-122.014147,37.323739]}},{"name":"4Home","city":"Sunnyvale","founded_year":2006,"location":{"type":"Point","coordinates":[-121.991912,37.385225]}},{"name":"Jobfox","city":"McLean","founded_year":2004,"location":{"type":"Point","coordinates":[-77.216969,38.92719]}},{"name":"ARPU","city":"Washington","founded_year":2005,"location":{"type":"Point","coordinates":[-95.712891,37.09024]}},{"name":"Outspark","city":"San Francisco","founded_year":2007,"location":{"type":"Point","coordinates":[-122.419204,37.775196]}},{"name":"Livemocha","city":"Seattle","founded_year":2007,"location":{"type":"Point","coordinates":[-122.1914274,47.6399006]}},{"name":"Joyent","city":"San Francisco","founded_year":2004,"location":{"type":"Point","coordinates":[-122.480153,37.856743]}},{"name":"PLYmedia","city":"Palo Alto","founded_year":2006,"location":{"type":"Point","coordinates":[-122.131383,37.400821]}},{"name":"fabrik","city":"San Mateo","founded_year":2005,"location":{"type":"Point","coordinates":[-122.300246,37.553743]}},{"name":"NuConomy","city":"San Francisco","founded_year":2006,"location":{"type":"Point","coordinates":[-122.430411,37.795191]}},{"name":"Widgetbox","city":"San Francisco","founded_year":2012,"location":{"type":"Point","coordinates":[-122.398599,37.798853]}},{"name":"yoonew","city":"New York","founded_year":2004,"location":{"type":"Point","coordinates":[-73.986557,40.75362]}},{"name":"RazorGator","city":"Los Angeles","founded_year":2011,"location":{"type":"Point","coordinates":[-118.445243,34.047312]}},{"name":"Mumboe","city":"Austin","founded_year":2005,"location":{"type":"Point","coordinates":[-97.711652,30.390071]}},{"name":"Zynga","city":"San Francisco","founded_year":2007,"location":{"type":"Point","coordinates":[-122.404234,37.765158]}},{"name":"blinkbox music","city":"Oxford","founded_year":2007,"location":{"type":"Point","coordinates":[-1.2063327,51.7319786]}},{"name":"Twingly","city":"Linkoping","founded_year":2006,"location":{"type":"Point","coordinates":[15.625419,58.415755]}},{"name":"XING","city":"Hamburg","founded_year":2003,"location":{"type":"Point","coordinates":[9.98793,53.555554]}},{"name":"Amobee","city":"Redwood City","founded_year":2005,"location":{"type":"Point","coordinates":[-122.263721,37.52845]}},{"name":"Proximic","city":"Palo Alto","founded_year":2006,"location":{"type":"Point","coordinates":[-122.406676,37.766909]}},{"name":"Visible Measures","city":"Boston","founded_year":2005,"location":{"type":"Point","coordinates":[-71.0590483,42.3536303]}},{"name":"Roost","city":"San Francisco","founded_year":2007,"location":{"type":"Point","coordinates":[-122.4020276,37.7891288]}},{"name":"Lijit Networks","city":"Boulder","founded_year":2006,"location":{"type":"Point","coordinates":[-105.28131,40.01621]}},{"name":"WorldTV","city":"Limerick","founded_year":2006,"location":{"type":"Point","coordinates":[-8.6267726,52.6638571]}},{"name":"WorldTV","city":"London","founded_year":2006,"location":{"type":"Point","coordinates":[-0.1262362,51.5001524]}},{"name":"clipsync","city":"San Francisco","founded_year":2007,"location":{"type":"Point","coordinates":[-121.9317853,37.2906027]}},{"name":"Heroku","city":"San Francisco","founded_year":2007,"location":{"type":"Point","coordinates":[-122.419204,37.775196]}},{"name":"Lookery","city":"San Francisco","founded_year":2007,"location":{"type":"Point","coordinates":[-122.403865,37.788266]}},{"name":"Lookery","city":"Cambridge","founded_year":2007,"location":{"type":"Point","coordinates":[-71.130297,42.398424]}},{"name":"Sharetivity","city":"Palo Alto","founded_year":2007,"location":{"type":"Point","coordinates":[-122.315396,37.550954]}},{"name":"First30Days","city":"Louisville","founded_year":2008,"location":{"type":"Point","coordinates":[-85.717393,38.257035]}},{"name":"Seatwave","city":"London","founded_year":2006,"location":{"type":"Point","coordinates":[-0.126236,51.500152]}},{"name":"BreakingPoint Systems","city":"Austin","founded_year":2005,"location":{"type":"Point","coordinates":[-97.709809,30.384453]}},{"name":"VisualCV","city":"Reston","founded_year":2006,"location":{"type":"Point","coordinates":[-77.3479238,38.9530391]}},{"name":"EnterpriseDB","city":"Bedford","founded_year":2004,"location":{"type":"Point","coordinates":[-74.332355,40.562967]}},{"name":"TalentSpring","city":"Seattle","founded_year":2006,"location":{"type":"Point","coordinates":[-122.120938,47.680496]}},{"name":"Collarity","city":"Palo Alto","founded_year":2005,"location":{"type":"Point","coordinates":[-122.154565,37.407752]}},{"name":"RocketOn","city":"South San Francisco","founded_year":2007,"location":{"type":"Point","coordinates":[-122.40788,37.65466]}},{"name":"SpotXchange","city":"Westminster","founded_year":2006,"location":{"type":"Point","coordinates":[-105.07359,39.89674]}},{"name":"Limeade","city":"Bellevue","founded_year":2006,"location":{"type":"Point","coordinates":[-122.196699,47.6097449]}},{"name":"Mixbook","city":"Palo Alto","founded_year":2006,"location":{"type":"Point","coordinates":[-121.918319,37.383844]}},{"name":"GameDuell","city":"Berlin","founded_year":2003,"location":{"type":"Point","coordinates":[13.3941489,52.5131826]}},{"name":"stickK","city":"New York","founded_year":2007,"location":{"type":"Point","coordinates":[-73.983843,40.744837]}},{"name":"Bragster","city":"London","founded_year":2007,"location":{"type":"Point","coordinates":[-0.0766034,51.5220072]}},{"name":"Qype","city":"Hamburg","founded_year":2005,"location":{"type":"Point","coordinates":[9.987181,53.54598]}},{"name":"GumGum","city":"Santa Monica","founded_year":2007,"location":{"type":"Point","coordinates":[-118.243425,34.052187]}},{"name":"TwoFish","city":"Redwood City","founded_year":2006,"location":{"type":"Point","coordinates":[-122.258139,37.522281]}},{"name":"Snap Technologies","city":"Pasadena","founded_year":2004,"location":{"type":"Point","coordinates":[-118.153136,34.146436]}},{"name":"Smalltown","city":"San Mateo","founded_year":2005,"location":{"type":"Point","coordinates":[-122.323045,37.566123]}},{"name":"Shelfari","city":"Seattle","founded_year":2006,"location":{"type":"Point","coordinates":[-122.347533,47.620716]}},{"name":"Sparkplay Media","city":"Mill Valley","founded_year":2006,"location":{"type":"Point","coordinates":[-122.547445,37.905544]}},{"name":"Cellfire","city":"San Jose","founded_year":2005,"location":{"type":"Point","coordinates":[-121.92902,37.395923]}},{"name":"TheLadders","city":"New York","founded_year":2003,"location":{"type":"Point","coordinates":[-74.006196,40.725883]}},{"name":"MOG","city":"Berkeley","founded_year":2005,"location":{"type":"Point","coordinates":[-122.268403,37.872222]}},{"name":"Social Gaming Network","city":"Los Angeles","founded_year":2011,"location":{"type":"Point","coordinates":[-122.161523,37.446823]}},{"name":"Social Gaming Network","city":"Beverly Hills","founded_year":2011,"location":{"type":"Point","coordinates":[-118.4054182,34.0698494]}},{"name":"Sitemasher","city":"Coral Gables","founded_year":2007,"location":{"type":"Point","coordinates":[-80.271378,25.705057]}},{"name":"Foneshow","city":"Portland","founded_year":2006,"location":{"type":"Point","coordinates":[-70.253959,43.657058]}},{"name":"fotopedia","city":"Paris","founded_year":2008,"location":{"type":"Point","coordinates":[2.350987,48.856667]}},{"name":"doubleTwist","city":"San Francisco","founded_year":2007,"location":{"type":"Point","coordinates":[-122.419204,37.775196]}},{"name":"MediaTrust","city":"New York","founded_year":2004,"location":{"type":"Point","coordinates":[-73.984268,40.743662]}},{"name":"GenieTown","city":"Palo Alto","founded_year":2006,"location":{"type":"Point","coordinates":[-122.144271,37.425773]}},{"name":"JackPot Rewards","city":"Newton","founded_year":2008,"location":{"type":"Point","coordinates":[-71.251748,42.337037]}},{"name":"RiffTrax","city":"San Diego","founded_year":2006,"location":{"type":"Point","coordinates":[-117.240431,32.936973]}},{"name":"P2P-Next","city":"","founded_year":2008,"location":{"type":"Point","coordinates":[5.291266,52.132633]}},{"name":"FameCast","city":"Austin","founded_year":2007,"location":{"type":"Point","coordinates":[-97.745209,30.268735]}},{"name":"Grooveshark","city":"Gainesville","founded_year":2006,"location":{"type":"Point","coordinates":[-82.3230981,29.6502461]}},{"name":"Redux","city":"Berkeley","founded_year":2007,"location":{"type":"Point","coordinates":[-122.269494,37.87168]}},{"name":"Evernote","city":"Redwood City","founded_year":2004,"location":{"type":"Point","coordinates":[-121.987661,37.386774]}},{"name":"HipLogic","city":"Fremont","founded_year":2005,"location":{"type":"Point","coordinates":[-121.9756765,37.5541073]}},{"name":"Raptr","city":"Mountain View","founded_year":2007,"location":{"type":"Point","coordinates":[-122.07808,37.40384]}},{"name":"GoldSpot Media","city":"Sunnyvale","founded_year":2006,"location":{"type":"Point","coordinates":[-121.992805,37.384206]}},{"name":"Ad Infuse","city":"San Francisco","founded_year":2005,"location":{"type":"Point","coordinates":[-122.404571,37.793375]}},{"name":"Inform Technologies","city":"New York","founded_year":2004,"location":{"type":"Point","coordinates":[-73.983963,40.744639]}},{"name":"EVO Media Group","city":"Seattle","founded_year":2007,"location":{"type":"Point","coordinates":[-122.3413,47.613896]}},{"name":"Covario","city":"San Diego","founded_year":2006,"location":{"type":"Point","coordinates":[-117.114827,32.912063]}},{"name":"SendMe","city":"San Francisco","founded_year":2006,"location":{"type":"Point","coordinates":[-122.39783,37.787126]}},{"name":"Kluster","city":"New York","founded_year":2008,"location":{"type":"Point","coordinates":[-73.985281,40.723652]}},{"name":"Blog Talk Radio","city":"New York","founded_year":2006,"location":{"type":"Point","coordinates":[-73.985506,40.757929]}},{"name":"Tiny Pictures","city":"San Francisco","founded_year":2005,"location":{"type":"Point","coordinates":[-122.406912,37.781002]}},{"name":"Flurry","city":"San Francisco","founded_year":2005,"location":{"type":"Point","coordinates":[-122.394067,37.783046]}},{"name":"Issuu","city":"Palo Alto","founded_year":2006,"location":{"type":"Point","coordinates":[-122.1514101,37.4784804]}},{"name":"Howcast","city":"New York City","founded_year":2008,"location":{"type":"Point","coordinates":[-73.889492,40.646166]}},{"name":"SugarSync","city":"San Mateo","founded_year":2004,"location":{"type":"Point","coordinates":[-122.307887,37.54763]}},{"name":"BillShrink","city":"Redwood City","founded_year":2008,"location":{"type":"Point","coordinates":[-122.211435,37.503147]}},{"name":"Teneros","city":"Mountain View","founded_year":2004,"location":{"type":"Point","coordinates":[-122.062778,37.389022]}},{"name":"Outbrain","city":"New York City","founded_year":2006,"location":{"type":"Point","coordinates":[-73.985506,40.757929]}},{"name":"Evri","city":"Seattle","founded_year":2007,"location":{"type":"Point","coordinates":[-122.347533,47.620716]}},{"name":"Y Combinator","city":"Mountain View","founded_year":2005,"location":{"type":"Point","coordinates":[-122.067979,37.38687]}},{"name":"Kazeon","city":"Mountain View","founded_year":2003,"location":{"type":"Point","coordinates":[-122.099577,37.431769]}},{"name":"MoFuse","city":"Providence","founded_year":2007,"location":{"type":"Point","coordinates":[-71.408718,41.826956]}},{"name":"OLX","city":"New York","founded_year":2006,"location":{"type":"Point","coordinates":[-73.7258199,40.8587524]}},{"name":"ModiFace","city":"Toronto","founded_year":2007,"location":{"type":"Point","coordinates":[-79.388279,43.666953]}},{"name":"Bleacher Report","city":"San Francisco","founded_year":2007,"location":{"type":"Point","coordinates":[-122.395792,37.776467]}},{"name":"Right Media","city":"New York","founded_year":2003,"location":{"type":"Point","coordinates":[-73.982607,40.74632]}},{"name":"Central Desktop","city":"Pasadena","founded_year":2005,"location":{"type":"Point","coordinates":[-118.121822,34.148374]}},{"name":"Mzinga","city":"Burlington","founded_year":2007,"location":{"type":"Point","coordinates":[-71.223359,42.489827]}},{"name":"crowdSPRING","city":"Chicago","founded_year":2007,"location":{"type":"Point","coordinates":[-87.657354,41.88583]}},{"name":"Innofidei","city":"Beijing","founded_year":2006,"location":{"type":"Point","coordinates":[116.395833,39.905556]}},{"name":"Sportgenic","city":"San Francisco","founded_year":2005,"location":{"type":"Point","coordinates":[-122.40094,37.790485]}},{"name":"99designs","city":"San Francisco","founded_year":2008,"location":{"type":"Point","coordinates":[-122.4005983,37.7955307]}},{"name":"99designs","city":"Collingwood","founded_year":2008,"location":{"type":"Point","coordinates":[144.9868546,-37.8026587]}},{"name":"99designs","city":"Berlin","founded_year":2008,"location":{"type":"Point","coordinates":[13.4469031,52.4986199]}},{"name":"Phreesia","city":"New York","founded_year":2005,"location":{"type":"Point","coordinates":[-73.985878,40.739794]}},{"name":"Generate","city":"Santa Monica","founded_year":2004,"location":{"type":"Point","coordinates":[-118.471463,34.031328]}},{"name":"Generate","city":"New York","founded_year":2004,"location":{"type":"Point","coordinates":[-73.969821,40.7570972]}},{"name":"Ifbyphone","city":"Chicago","founded_year":2005,"location":{"type":"Point","coordinates":[-87.750643,42.040851]}},{"name":"LiveRail","city":"San Francisco","founded_year":2008,"location":{"type":"Point","coordinates":[-122.397759,37.787183]}},{"name":"Paxfire","city":"Sterling","founded_year":2003,"location":{"type":"Point","coordinates":[-77.421054,38.988367]}},{"name":"OpenDNS","city":"San Francisco","founded_year":2005,"location":{"type":"Point","coordinates":[-122.395184,37.789268]}},{"name":"Kareo","city":"Irvine","founded_year":2004,"location":{"type":"Point","coordinates":[-117.8587,33.676444]}},{"name":"Innovid","city":"New York","founded_year":2007,"location":{"type":"Point","coordinates":[-73.99873,40.722655]}},{"name":"Footnote","city":"Lindon","founded_year":2006,"location":{"type":"Point","coordinates":[-111.7276347,40.3310529]}},{"name":"Coveo","city":"Vernon Hills","founded_year":2005,"location":{"type":"Point","coordinates":[-122.167506,37.446078]}},{"name":"Akoha","city":"Montreal","founded_year":2006,"location":{"type":"Point","coordinates":[-73.578477,45.516545]}},{"name":"Vovici","city":"Dulles","founded_year":2006,"location":{"type":"Point","coordinates":[-77.434128,38.983393]}},{"name":"Vovici","city":"Kingston Upon Thames","founded_year":2006,"location":{"type":"Point","coordinates":[-0.3016459,51.4140631]}},{"name":"Tripology","city":"New York","founded_year":2006,"location":{"type":"Point","coordinates":[-73.983969,40.746883]}},{"name":"PI Corporation","city":"Seattle","founded_year":2003,"location":{"type":"Point","coordinates":[-122.332614,47.602416]}},{"name":"Skimlinks","city":"London","founded_year":2006,"location":{"type":"Point","coordinates":[-0.084462,51.522727]}},{"name":"Giant Realm","city":"New York","founded_year":2007,"location":{"type":"Point","coordinates":[-73.9827553,40.7566658]}},{"name":"Janrain","city":"Portland","founded_year":2005,"location":{"type":"Point","coordinates":[-122.675838,45.484413]}},{"name":"Global Roaming","city":"Miami","founded_year":2006,"location":{"type":"Point","coordinates":[-80.1417742,25.9690885]}},{"name":"SearchMe","city":"Mountain View","founded_year":2005,"location":{"type":"Point","coordinates":[-122.084171,37.386665]}},{"name":"SearchMe","city":"San Francisco","founded_year":2005,"location":{"type":"Point","coordinates":[-122.402667,37.793473]}},{"name":"AccountNow","city":"San Ramon","founded_year":2003,"location":{"type":"Point","coordinates":[-122.001446,37.769922]}},{"name":"TalkShoe","city":"Wexford","founded_year":2005,"location":{"type":"Point","coordinates":[-80.059548,40.616311]}},{"name":"Workday","city":"Pleasanton","founded_year":2005,"location":{"type":"Point","coordinates":[-121.921532,37.694202]}},{"name":"PopularMedia","city":"San Francisco","founded_year":2003,"location":{"type":"Point","coordinates":[-122.411157,37.767575]}},{"name":"DailyStrength","city":"Los Angeles","founded_year":2006,"location":{"type":"Point","coordinates":[-118.468204,34.043948]}},{"name":"Clarizen","city":"San Mateo","founded_year":2005,"location":{"type":"Point","coordinates":[-122.328401,37.536044]}},{"name":"Next New Networks","city":"New York","founded_year":2007,"location":{"type":"Point","coordinates":[-73.983626,40.743808]}},{"name":"Skydeck","city":"Palo Alto","founded_year":2012,"location":{"type":"Point","coordinates":[-122.3254705,37.5645375]}},{"name":"Sprout","city":"Honolulu","founded_year":2008,"location":{"type":"Point","coordinates":[-157.8086025,21.30829]}},{"name":"Sprout","city":"San Francisco","founded_year":2008,"location":{"type":"Point","coordinates":[-122.418137,37.755012]}},{"name":"Zuora","city":"Foster City","founded_year":2007,"location":{"type":"Point","coordinates":[-122.2709868,37.5596277]}},{"name":"Jivox","city":"Redwood City","founded_year":2007,"location":{"type":"Point","coordinates":[-122.288006,37.555962]}},{"name":"ShareThis","city":"Palo Alto","founded_year":2007,"location":{"type":"Point","coordinates":[-122.0872274,37.4203945]}},{"name":"Krillion","city":"Mountain View","founded_year":2006,"location":{"type":"Point","coordinates":[-122.077597,37.391727]}},{"name":"Star Analytics","city":"San Mateo","founded_year":2004,"location":{"type":"Point","coordinates":[-122.281484,37.556152]}},{"name":"Elastra","city":"San Francisco","founded_year":2007,"location":{"type":"Point","coordinates":[-122.391843,37.791137]}},{"name":"kwiry","city":"San Francisco","founded_year":2006,"location":{"type":"Point","coordinates":[-122.4035985,37.7885714]}},{"name":"Scalent Systems","city":"Palo Alto","founded_year":2003,"location":{"type":"Point","coordinates":[-122.1085482,37.429676]}},{"name":"Replay Solutions","city":"Redwood City","founded_year":2004,"location":{"type":"Point","coordinates":[-122.200914,37.512318]}},{"name":"SupplyFrame","city":"Pasadena","founded_year":2003,"location":{"type":"Point","coordinates":[-118.151542,34.143885]}},{"name":"Authenticlick","city":"Los Angeles","founded_year":2005,"location":{"type":"Point","coordinates":[-118.354605,34.062504]}},{"name":"Wrike","city":"San Jose","founded_year":2006,"location":{"type":"Point","coordinates":[-122.0879281,37.3973787]}},{"name":"Gnip","city":"Boulder","founded_year":2008,"location":{"type":"Point","coordinates":[-105.274628,40.019299]}},{"name":"Playfish","city":"London","founded_year":2007,"location":{"type":"Point","coordinates":[-0.1984802,51.4991094]}},{"name":"Playfish","city":"Troms\u00c3\u00b8","founded_year":2007,"location":{"type":"Point","coordinates":[18.931062,69.636216]}},{"name":"Tapioca Mobile","city":"San Diego","founded_year":2008,"location":{"type":"Point","coordinates":[-117.166929,32.88945]}},{"name":"Slicethepie","city":"","founded_year":2007,"location":{"type":"Point","coordinates":[-3.435973,55.378051]}},{"name":"CloudMade","city":"Menlo Park","founded_year":2008,"location":{"type":"Point","coordinates":[-122.151234,37.477944]}},{"name":"ShowClix","city":"Pittsburgh","founded_year":2007,"location":{"type":"Point","coordinates":[-79.842487,40.517948]}},{"name":"ScanCafe","city":"Burlingame","founded_year":2006,"location":{"type":"Point","coordinates":[-122.369676,37.592584]}},{"name":"liveBooks","city":"Sausalito","founded_year":2005,"location":{"type":"Point","coordinates":[-122.5036866,37.8712444]}},{"name":"KidZui","city":"San Diego","founded_year":2006,"location":{"type":"Point","coordinates":[-95.712891,37.09024]}},{"name":"XIHA","city":"Helsinki","founded_year":2007,"location":{"type":"Point","coordinates":[24.9410012,60.1681494]}},{"name":"XIHA","city":"","founded_year":2007,"location":{"type":"Point","coordinates":[8.5515974,47.3612288]}},{"name":"Moblica","city":"Tel Aviv","founded_year":2011,"location":{"type":"Point","coordinates":[34.7595,32.0554]}},{"name":"Act-On Software","city":"Beaverton","founded_year":2008,"location":{"type":"Point","coordinates":[-122.79635,45.484177]}},{"name":"Dimdim","city":"Lowell","founded_year":2006,"location":{"type":"Point","coordinates":[-71.3258687,42.6161515]}},{"name":"Liftopia","city":"San Francisco","founded_year":2005,"location":{"type":"Point","coordinates":[-122.420903,37.796164]}},{"name":"AnchorFree","city":"Mountain View","founded_year":2005,"location":{"type":"Point","coordinates":[-122.010692,37.378884]}},{"name":"Networked Insights","city":"Madison","founded_year":2006,"location":{"type":"Point","coordinates":[-72.5254318,41.278528]}},{"name":"Networked Insights","city":"New York","founded_year":2006,"location":{"type":"Point","coordinates":[-73.986243,40.745559]}},{"name":"Networked Insights","city":"Chicago","founded_year":2006,"location":{"type":"Point","coordinates":[-87.634173,41.879979]}},{"name":"OrangeSoda","city":"American Fork","founded_year":2006,"location":{"type":"Point","coordinates":[-111.780243,40.358294]}},{"name":"Aternity","city":"Westborough","founded_year":2004,"location":{"type":"Point","coordinates":[-71.5827673,42.279967]}},{"name":"Mytopia","city":"Palo Alto","founded_year":2007,"location":{"type":"Point","coordinates":[-118.489681,34.007967]}},{"name":"Magento","city":"Los Angeles","founded_year":2010,"location":{"type":"Point","coordinates":[-118.243425,34.052187]}},{"name":"Netbooks","city":"San Francisco","founded_year":2006,"location":{"type":"Point","coordinates":[-122.40195,37.79471]}},{"name":"GotVoice","city":"Kirkland","founded_year":2003,"location":{"type":"Point","coordinates":[-122.199525,47.666791]}},{"name":"Pikum","city":"London","founded_year":2007,"location":{"type":"Point","coordinates":[-0.152998,51.539778]}},{"name":"CLEAR","city":"New York","founded_year":2003,"location":{"type":"Point","coordinates":[-81.1274,29.4748]}},{"name":"7digital","city":"London","founded_year":2004,"location":{"type":"Point","coordinates":[-0.083726,51.5254]}},{"name":"babbel","city":"Berlin","founded_year":2007,"location":{"type":"Point","coordinates":[13.38861,52.4897]}},{"name":"Kannuu","city":"Dallas","founded_year":2007,"location":{"type":"Point","coordinates":[-96.7679229,32.9249424]}},{"name":"Clearwell Systems","city":"Mountain View","founded_year":2004,"location":{"type":"Point","coordinates":[-122.049143,37.398022]}},{"name":"Wikimedia Foundation","city":"San Francisco","founded_year":2003,"location":{"type":"Point","coordinates":[-122.392839,37.76785]}},{"name":"Become","city":"Sunnyvale","founded_year":2004,"location":{"type":"Point","coordinates":[-122.07259,37.424801]}},{"name":"MindBites","city":"","founded_year":2007,"location":{"type":"Point","coordinates":[-95.712891,37.09024]}},{"name":"Business Insider","city":"New York","founded_year":2007,"location":{"type":"Point","coordinates":[-73.990911,40.73906]}},{"name":"The Echo Nest","city":"Somerville","founded_year":2005,"location":{"type":"Point","coordinates":[-71.12045,42.396495]}},{"name":"BeInSync","city":"Tel Aviv","founded_year":2004,"location":{"type":"Point","coordinates":[34.7595,32.0554]}},{"name":"Zemanta","city":"London","founded_year":2007,"location":{"type":"Point","coordinates":[-0.0934254,51.5141566]}},{"name":"Zemanta","city":"New York","founded_year":2007,"location":{"type":"Point","coordinates":[-73.9939213,40.7387945]}},{"name":"Zemanta","city":"Ljubljana","founded_year":2007,"location":{"type":"Point","coordinates":[14.4972218,46.0607926]}},{"name":"iovation","city":"Portland","founded_year":2004,"location":{"type":"Point","coordinates":[-122.675536,45.52254]}},{"name":"Perfect Market","city":"Pasadena","founded_year":2007,"location":{"type":"Point","coordinates":[-118.153136,34.146436]}},{"name":"Glassdoor","city":"Sausalito","founded_year":2007,"location":{"type":"Point","coordinates":[-122.500111,37.868002]}},{"name":"itzbig","city":"Austin","founded_year":2006,"location":{"type":"Point","coordinates":[-97.759511,30.387275]}},{"name":"Bonobos","city":"New York","founded_year":2007,"location":{"type":"Point","coordinates":[-73.9954585,40.7384997]}},{"name":"Marketo","city":"San Mateo","founded_year":2006,"location":{"type":"Point","coordinates":[-122.301385,37.5583]}},{"name":"Edmodo","city":"San Mateo","founded_year":2008,"location":{"type":"Point","coordinates":[-88.321171,41.857915]}},{"name":"eYeka","city":"Paris","founded_year":2006,"location":{"type":"Point","coordinates":[2.350987,48.856667]}},{"name":"Minggl","city":"Austin","founded_year":2005,"location":{"type":"Point","coordinates":[-97.745209,30.268735]}},{"name":"Cellufun","city":"New York","founded_year":2005,"location":{"type":"Point","coordinates":[-73.9930489,40.73993]}},{"name":"Xoopit","city":"San Francisco","founded_year":2004,"location":{"type":"Point","coordinates":[-122.4092704,37.7617955]}},{"name":"Reality Digital","city":"Berkeley","founded_year":2003,"location":{"type":"Point","coordinates":[-122.291817,37.859443]}},{"name":"eRepublik","city":"Madrid","founded_year":2007,"location":{"type":"Point","coordinates":[-3.6952896,40.43094]}},{"name":"Q-Layer","city":"Lochristi","founded_year":2005,"location":{"type":"Point","coordinates":[3.771122,51.070829]}},{"name":"Spongecell","city":"New York","founded_year":2006,"location":{"type":"Point","coordinates":[-122.401537,37.773727]}},{"name":"Metaversum","city":"Berlin","founded_year":2006,"location":{"type":"Point","coordinates":[13.419841,52.512249]}},{"name":"Placecast","city":"San Francisco","founded_year":2005,"location":{"type":"Point","coordinates":[-122.423468,37.773688]}},{"name":"Kublax","city":"London","founded_year":2007,"location":{"type":"Point","coordinates":[-0.1262362,51.5001524]}},{"name":"Jodange","city":"Yonkers","founded_year":2007,"location":{"type":"Point","coordinates":[-73.901839,40.934803]}},{"name":"Egnyte","city":"Mountain View","founded_year":2006,"location":{"type":"Point","coordinates":[-122.100288,37.429647]}},{"name":"Austhink Software","city":"Melbourne, Victoria","founded_year":2004,"location":{"type":"Point","coordinates":[144.96616,-37.813603]}},{"name":"Cotendo","city":"Sunnyvale","founded_year":2008,"location":{"type":"Point","coordinates":[-122.259568,37.504764]}},{"name":"Cellfish","city":"New York","founded_year":2004,"location":{"type":"Point","coordinates":[-73.983754,40.761855]}},{"name":"Krugle","city":"Menlo Park","founded_year":2006,"location":{"type":"Point","coordinates":[-122.165399,37.45604]}},{"name":"eSolar","city":"Pasadena","founded_year":2007,"location":{"type":"Point","coordinates":[-118.153136,34.146436]}},{"name":"Huddle","city":"London","founded_year":2006,"location":{"type":"Point","coordinates":[-0.0814873,51.4999065]}},{"name":"Huddle","city":"San Francisco","founded_year":2006,"location":{"type":"Point","coordinates":[-122.403256,37.78236]}},{"name":"Marin Software","city":"San Francisco","founded_year":2006,"location":{"type":"Point","coordinates":[-122.3946404,37.792083]}},{"name":"Trampoline Systems","city":"London","founded_year":2003,"location":{"type":"Point","coordinates":[-0.0869736,51.5212179]}},{"name":"SiBEAM","city":"Sunnyvale","founded_year":2004,"location":{"type":"Point","coordinates":[-122.03039,37.390704]}},{"name":"Vivity Labs","city":"Vancouver","founded_year":2007,"location":{"type":"Point","coordinates":[-123.108456,49.282249]}},{"name":"MADS","city":"Amsterdam","founded_year":2006,"location":{"type":"Point","coordinates":[4.8946071,52.3637746]}},{"name":"Boxbe","city":"San Francisco","founded_year":2005,"location":{"type":"Point","coordinates":[-122.442592,37.800209]}},{"name":"Univa UD","city":"Lisle","founded_year":2004,"location":{"type":"Point","coordinates":[-88.073008,41.808458]}},{"name":"Moviestorm","city":"Cambridge","founded_year":2005,"location":{"type":"Point","coordinates":[0.130588,52.197471]}},{"name":"mySupermarket","city":"New York","founded_year":2006,"location":{"type":"Point","coordinates":[-2.244824,53.478714]}},{"name":"mySupermarket","city":"London","founded_year":2006,"location":{"type":"Point","coordinates":[-0.159205,51.513671]}},{"name":"RichRelevance","city":"San Francisco","founded_year":2006,"location":{"type":"Point","coordinates":[-122.4000965,37.7938969]}},{"name":"TrustedPlaces","city":"London","founded_year":2006,"location":{"type":"Point","coordinates":[-0.113583,51.524483]}},{"name":"Shopflick","city":"Los Angeles","founded_year":2007,"location":{"type":"Point","coordinates":[-118.419067,34.044939]}},{"name":"mediaFORGE","city":"Salt Lake City","founded_year":2005,"location":{"type":"Point","coordinates":[-111.804504,40.634468]}},{"name":"Mojiva","city":"New York","founded_year":2008,"location":{"type":"Point","coordinates":[-73.998662,40.7185614]}},{"name":"GitHub","city":"San Francisco","founded_year":2008,"location":{"type":"Point","coordinates":[-122.419204,37.775196]}},{"name":"Iminent","city":"Paris","founded_year":2006,"location":{"type":"Point","coordinates":[2.387422,48.8522431]}},{"name":"AdXpose","city":"Seattle","founded_year":2005,"location":{"type":"Point","coordinates":[-122.340459,47.635354]}},{"name":"Strutta","city":"Vancouver","founded_year":2007,"location":{"type":"Point","coordinates":[-123.1078045,49.2821075]}},{"name":"Memeo","city":"Santa Clara","founded_year":2003,"location":{"type":"Point","coordinates":[-117.731283,33.585767]}},{"name":"Iterasi","city":"Portland","founded_year":2007,"location":{"type":"Point","coordinates":[-122.670132,45.523104]}},{"name":"Salesconx","city":"New York","founded_year":2008,"location":{"type":"Point","coordinates":[-73.98459,40.759243]}},{"name":"RealMatch","city":"New York","founded_year":2004,"location":{"type":"Point","coordinates":[-77.19544,39.047912]}},{"name":"ImageShack","city":"Los Gatos","founded_year":2003,"location":{"type":"Point","coordinates":[-121.98147,37.226709]}},{"name":"Collective Intellect","city":"Boulder","founded_year":2005,"location":{"type":"Point","coordinates":[-105.2764361,40.0186313]}},{"name":"PluggedIn","city":"Santa Monica","founded_year":2006,"location":{"type":"Point","coordinates":[-118.489681,34.007967]}},{"name":"Globant","city":"Buenos Aires","founded_year":2003,"location":{"type":"Point","coordinates":[-58.3708904,-34.5967236]}},{"name":"Globant","city":"Hopkinton","founded_year":2003,"location":{"type":"Point","coordinates":[-71.5174869,42.2261823]}},{"name":"Globant","city":"London","founded_year":2003,"location":{"type":"Point","coordinates":[-0.0952197,51.5205095]}},{"name":"Globant","city":"San Francisco","founded_year":2003,"location":{"type":"Point","coordinates":[-122.4041764,37.7819286]}},{"name":"Globant","city":"Sao Paulo","founded_year":2003,"location":{"type":"Point","coordinates":[-46.6816579,-23.5606195]}},{"name":"Globant","city":"Bogota","founded_year":2003,"location":{"type":"Point","coordinates":[-74.0632101,4.7595921]}},{"name":"Globant","city":"Montevideo","founded_year":2003,"location":{"type":"Point","coordinates":[-56.1819444,-34.8836111]}},{"name":"Globant","city":"La Plata","founded_year":2003,"location":{"type":"Point","coordinates":[-58.3840599,-34.6776448]}},{"name":"Globant","city":"Tandil","founded_year":2003,"location":{"type":"Point","coordinates":[-59.1340915,-37.3281072]}},{"name":"Globant","city":"Resistencia","founded_year":2003,"location":{"type":"Point","coordinates":[-58.9871056,-27.4533887]}},{"name":"Globant","city":"Tucuman","founded_year":2003,"location":{"type":"Point","coordinates":[-65.3024825,-26.8007888]}},{"name":"Globant","city":"Bah\u00eda Blanca","founded_year":2003,"location":{"type":"Point","coordinates":[-62.2690974,-38.7211371]}},{"name":"Mirror42","city":"Amsterdam","founded_year":2004,"location":{"type":"Point","coordinates":[4.896468,52.36702]}},{"name":"Apture","city":"San Francisco","founded_year":2007,"location":{"type":"Point","coordinates":[-122.322954,37.566042]}},{"name":"CellSpin","city":"San Jose","founded_year":2006,"location":{"type":"Point","coordinates":[-121.957018,37.421731]}},{"name":"InMobi","city":"San Francisco","founded_year":2007,"location":{"type":"Point","coordinates":[-122.1709208,37.4465496]}},{"name":"InMobi","city":"Singapore","founded_year":2007,"location":{"type":"Point","coordinates":[103.851942,1.284082]}},{"name":"MediaScrape","city":"Montreal","founded_year":2006,"location":{"type":"Point","coordinates":[-73.639076,45.545447]}},{"name":"TeachStreet","city":"Seattle","founded_year":2007,"location":{"type":"Point","coordinates":[-122.3370801,47.6171788]}},{"name":"MUBI","city":"Palo Alto","founded_year":2007,"location":{"type":"Point","coordinates":[-122.161025,37.44236]}},{"name":"UserVoice","city":"San Francisco","founded_year":2008,"location":{"type":"Point","coordinates":[-122.0253784,36.9751032]}},{"name":"Health Plan One","city":"Shelton","founded_year":2006,"location":{"type":"Point","coordinates":[-73.135894,41.262403]}},{"name":"Modern Feed","city":"Los Angeles","founded_year":2007,"location":{"type":"Point","coordinates":[-118.343791,34.085749]}},{"name":"PrepChamps","city":"","founded_year":2007,"location":{"type":"Point","coordinates":[-78.902617,35.914702]}},{"name":"Aardvark","city":"San Francisco","founded_year":2007,"location":{"type":"Point","coordinates":[-122.415813,37.748676]}},{"name":"Triggit","city":"San Francisco","founded_year":2006,"location":{"type":"Point","coordinates":[-122.418129,37.771208]}},{"name":"Retail Convergence","city":"Boston","founded_year":2008,"location":{"type":"Point","coordinates":[-71.05682,42.35888]}},{"name":"Serious Business","city":"San Francisco","founded_year":2008,"location":{"type":"Point","coordinates":[-122.4013624,37.7893215]}},{"name":"OPEN Sports Network","city":"Deerfield Beach","founded_year":2007,"location":{"type":"Point","coordinates":[-80.127087,26.310509]}},{"name":"TuneWiki","city":"Santa Monica","founded_year":2007,"location":{"type":"Point","coordinates":[-121.916861,37.412577]}},{"name":"KnowledgeTree","city":"Raleigh","founded_year":2006,"location":{"type":"Point","coordinates":[-78.647003,35.786975]}},{"name":"Adify","city":"San Bruno","founded_year":2006,"location":{"type":"Point","coordinates":[-122.424975,37.629393]}},{"name":"InvenSense","city":"San Jose","founded_year":2003,"location":{"type":"Point","coordinates":[-122.019405,37.407445]}},{"name":"Wigix","city":"","founded_year":2007,"location":{"type":"Point","coordinates":[-95.712891,37.09024]}},{"name":"Spotify","city":"Luxembourg","founded_year":2006,"location":{"type":"Point","coordinates":[6.121511,49.607295]}},{"name":"Center'd","city":"Menlo Park","founded_year":2006,"location":{"type":"Point","coordinates":[-122.185098,37.452992]}},{"name":"Indochino","city":"Vancouver, BC","founded_year":2007,"location":{"type":"Point","coordinates":[-123.337608,48.487589]}},{"name":"Pontiflex","city":"Brooklyn","founded_year":2008,"location":{"type":"Point","coordinates":[-73.989613,40.702692]}},{"name":"Kabam","city":"San Francisco","founded_year":2006,"location":{"type":"Point","coordinates":[-122.0785314,37.3944561]}},{"name":"Mind Candy","city":"London","founded_year":2003,"location":{"type":"Point","coordinates":[-0.147646,51.471958]}},{"name":"TicketLeap","city":"Philadelphia","founded_year":2003,"location":{"type":"Point","coordinates":[-75.179869,39.9512991]}},{"name":"Syncplicity","city":"Menlo Park","founded_year":2008,"location":{"type":"Point","coordinates":[-122.477959,37.814202]}},{"name":"kajeet","city":"Bethesda","founded_year":2003,"location":{"type":"Point","coordinates":[-77.1008,38.9806]}},{"name":"New Relic","city":"San Francisco","founded_year":2008,"location":{"type":"Point","coordinates":[-119.306607,37.269175]}},{"name":"Velocify","city":"El Segundo","founded_year":2004,"location":{"type":"Point","coordinates":[-118.3952969,33.9192583]}},{"name":"Pixsta","city":"London","founded_year":2010,"location":{"type":"Point","coordinates":[-0.208979,51.51819]}},{"name":"Tripwolf","city":"Vienna","founded_year":2007,"location":{"type":"Point","coordinates":[16.355,48.220357]}},{"name":"PatientsLikeMe","city":"Cambridge","founded_year":2004,"location":{"type":"Point","coordinates":[-71.0793952,42.3674989]}},{"name":"Zinch","city":"San Francisco","founded_year":2007,"location":{"type":"Point","coordinates":[-111.658656,40.234451]}},{"name":"Yoono","city":"San Francisco","founded_year":2006,"location":{"type":"Point","coordinates":[-122.397884,37.787204]}},{"name":"GodTube","city":"Plano","founded_year":2007,"location":{"type":"Point","coordinates":[-96.823962,33.075067]}},{"name":"Jinni","city":"Tel Aviv","founded_year":2008,"location":{"type":"Point","coordinates":[34.7595,32.0554]}},{"name":"Memopal","city":"Rome","founded_year":2007,"location":{"type":"Point","coordinates":[12.461425,41.823172]}},{"name":"OVGuide","city":"Los Angeles","founded_year":2006,"location":{"type":"Point","coordinates":[-118.243425,34.052187]}},{"name":"SnapLogic","city":"San Mateo","founded_year":2006,"location":{"type":"Point","coordinates":[-122.302654,37.558245]}},{"name":"Talend","city":"Los Altos","founded_year":2005,"location":{"type":"Point","coordinates":[-122.111711,37.371908]}},{"name":"Fave Media","city":"Chicago","founded_year":2006,"location":{"type":"Point","coordinates":[-87.640442,41.924899]}},{"name":"EatLime","city":"San Francisco","founded_year":2007,"location":{"type":"Point","coordinates":[-122.4194155,37.7749295]}},{"name":"Wirama","city":"Sunnyvale","founded_year":2006,"location":{"type":"Point","coordinates":[-122.012475,37.384239]}},{"name":"sevenload","city":"Cologne","founded_year":2006,"location":{"type":"Point","coordinates":[6.921546,50.945289]}},{"name":"NewsCred","city":"New York","founded_year":2008,"location":{"type":"Point","coordinates":[6.124424,46.223157]}},{"name":"NewsCred","city":"Dhaka","founded_year":2008,"location":{"type":"Point","coordinates":[90.407143,23.709921]}},{"name":"ClairMail","city":"San Rafael","founded_year":2004,"location":{"type":"Point","coordinates":[-122.513742,38.057107]}},{"name":"Appfolio","city":"Goleta","founded_year":2006,"location":{"type":"Point","coordinates":[-119.863565,34.433463]}},{"name":"CitizenHawk","city":"Aliso Viejo","founded_year":2006,"location":{"type":"Point","coordinates":[-117.734795,33.571604]}},{"name":"Passenger","city":"Los Angeles","founded_year":2005,"location":{"type":"Point","coordinates":[-118.308943,34.029956]}},{"name":"Sparkroom","city":"Toronto","founded_year":2007,"location":{"type":"Point","coordinates":[-79.385969,43.6683]}},{"name":"SimpleTuition","city":"Boston","founded_year":2005,"location":{"type":"Point","coordinates":[-71.214796,42.297418]}},{"name":"TuneUp","city":"San Francisco","founded_year":2007,"location":{"type":"Point","coordinates":[-122.4119381,37.7654195]}},{"name":"Tyfone","city":"Portland","founded_year":2004,"location":{"type":"Point","coordinates":[-122.674995,45.5105]}},{"name":"IP Commerce","city":"Denver","founded_year":2005,"location":{"type":"Point","coordinates":[-104.99342,39.74893]}},{"name":"Rapleaf","city":"Chicago","founded_year":2006,"location":{"type":"Point","coordinates":[-122.4013875,37.7867392]}},{"name":"rVita","city":"Santa Clara","founded_year":2007,"location":{"type":"Point","coordinates":[-121.978821,37.398476]}},{"name":"Mozes","city":"Palo Alto","founded_year":2005,"location":{"type":"Point","coordinates":[-122.166911,37.445667]}},{"name":"Smarkets","city":"London","founded_year":2008,"location":{"type":"Point","coordinates":[-0.130772,51.550757]}},{"name":"Futurlink","city":"Barcelona","founded_year":2003,"location":{"type":"Point","coordinates":[2.189241,41.396553]}},{"name":"Cognition Technologies","city":"Culver City","founded_year":2003,"location":{"type":"Point","coordinates":[-118.389452,33.985399]}},{"name":"Stitcher","city":"San Francisco","founded_year":2008,"location":{"type":"Point","coordinates":[-122.419204,37.775196]}},{"name":"Raydiance","city":"Chevy Chase","founded_year":2004,"location":{"type":"Point","coordinates":[-77.083389,38.96524]}},{"name":"OleOle","city":"Beverly Hills","founded_year":2006,"location":{"type":"Point","coordinates":[-118.409161,34.067153]}},{"name":"BusinessCard2","city":"Minneapolis","founded_year":2006,"location":{"type":"Point","coordinates":[-93.250179,45.004089]}},{"name":"TerraPass","city":"San Francisco","founded_year":2004,"location":{"type":"Point","coordinates":[-122.397847,37.787445]}},{"name":"Sometrics","city":"El Segundo","founded_year":2007,"location":{"type":"Point","coordinates":[-118.251343,34.048857]}},{"name":"SocialVibe","city":"Los Angeles","founded_year":2007,"location":{"type":"Point","coordinates":[-118.3826743,34.0815238]}},{"name":"WrapMail","city":"Fort Lauderdale","founded_year":2005,"location":{"type":"Point","coordinates":[-80.143394,26.119403]}},{"name":"mywaves","city":"Sunnyvale","founded_year":2005,"location":{"type":"Point","coordinates":[-122.016779,37.3886]}},{"name":"Parascale","city":"Cupertino","founded_year":2005,"location":{"type":"Point","coordinates":[-122.05074,37.316653]}},{"name":"NextBio","city":"Santa Clara","founded_year":2004,"location":{"type":"Point","coordinates":[-122.05074,37.316653]}},{"name":"Aprius","city":"Washington","founded_year":2006,"location":{"type":"Point","coordinates":[-117.5357108,47.6409655]}},{"name":"Aquantia","city":"Milpitas","founded_year":2004,"location":{"type":"Point","coordinates":[-121.9175461,37.4130233]}},{"name":"Zoosk","city":"San Francisco","founded_year":2007,"location":{"type":"Point","coordinates":[-122.4099154,37.7726402]}},{"name":"Transpera","city":"San Francisco","founded_year":2007,"location":{"type":"Point","coordinates":[-122.405081,37.785792]}},{"name":"AirCell","city":"Itasca","founded_year":2005,"location":{"type":"Point","coordinates":[-88.004903,41.989344]}},{"name":"Ztail","city":"Palo Alto","founded_year":2005,"location":{"type":"Point","coordinates":[-122.160011,37.44931]}},{"name":"Row44","city":"Westlake Village","founded_year":2004,"location":{"type":"Point","coordinates":[-118.80146,34.143152]}},{"name":"Aster Data Systems","city":"San Carlos","founded_year":2005,"location":{"type":"Point","coordinates":[-122.2475729,37.5068854]}},{"name":"Bizo","city":"San Francisco","founded_year":2008,"location":{"type":"Point","coordinates":[-122.4011706,37.7911186]}},{"name":"Fliqz","city":"Emeryville","founded_year":2005,"location":{"type":"Point","coordinates":[-122.289498,37.848641]}},{"name":"Sonico","city":"Buenos Aires","founded_year":2007,"location":{"type":"Point","coordinates":[-58.417309,-34.611781]}},{"name":"eBureau","city":"St. Cloud","founded_year":2004,"location":{"type":"Point","coordinates":[-94.159452,45.560899]}},{"name":"Moblyng","city":"Redwood City","founded_year":2005,"location":{"type":"Point","coordinates":[-122.229069,37.453665]}},{"name":"Sirtris Pharmaceuticals","city":"Cambridge","founded_year":2004,"location":{"type":"Point","coordinates":[-71.091189,42.363567]}},{"name":"Knewton","city":"New York","founded_year":2008,"location":{"type":"Point","coordinates":[-74.0078134,40.7310476]}},{"name":"AtHoc","city":"San Mateo","founded_year":2005,"location":{"type":"Point","coordinates":[-122.284001,37.560747]}},{"name":"CoverItLive","city":"Austin","founded_year":2007,"location":{"type":"Point","coordinates":[-79.4255306,43.6378576]}},{"name":"ScribbleLive","city":"Toronto","founded_year":2008,"location":{"type":"Point","coordinates":[-79.406775,43.64308]}},{"name":"Zecter","city":"Burlingame","founded_year":2007,"location":{"type":"Point","coordinates":[-122.087712,37.384756]}},{"name":"Campus Explorer","city":"Santa Monica","founded_year":2007,"location":{"type":"Point","coordinates":[-118.463841,34.031178]}},{"name":"Votigo","city":"Boulder","founded_year":2006,"location":{"type":"Point","coordinates":[-122.1192743,37.8919079]}},{"name":"Zefanclub","city":"Paris","founded_year":2008,"location":{"type":"Point","coordinates":[2.339843,48.868478]}},{"name":"BrightDoor Systems","city":"Cary","founded_year":2005,"location":{"type":"Point","coordinates":[-78.789358,35.828121]}},{"name":"OtherInbox","city":"Austin","founded_year":2008,"location":{"type":"Point","coordinates":[-97.740395,30.269004]}},{"name":"PurePlay","city":"San Francisco","founded_year":2004,"location":{"type":"Point","coordinates":[-122.419204,37.775196]}},{"name":"Aruspex","city":"San Francisco","founded_year":2003,"location":{"type":"Point","coordinates":[-122.40185,37.790346]}},{"name":"Oxynade","city":"Ghent","founded_year":2007,"location":{"type":"Point","coordinates":[3.71105,51.050314]}},{"name":"GreenNote","city":"Mather","founded_year":2007,"location":{"type":"Point","coordinates":[-122.227765,37.492685]}},{"name":"Aptera","city":"Carlsbad","founded_year":2003,"location":{"type":"Point","coordinates":[-117.254593,33.133524]}},{"name":"M:Metrics","city":"Seattle","founded_year":2004,"location":{"type":"Point","coordinates":[-122.347533,47.620716]}},{"name":"Jambool","city":"San Francisco","founded_year":2006,"location":{"type":"Point","coordinates":[-122.389519,37.782101]}},{"name":"B-hive Networks","city":"San Mateo","founded_year":2005,"location":{"type":"Point","coordinates":[-122.325129,37.536402]}},{"name":"Cloudcity","city":"St Albans","founded_year":2007,"location":{"type":"Point","coordinates":[-0.280535,51.750141]}},{"name":"TeleFlip","city":"Santa Monica","founded_year":2004,"location":{"type":"Point","coordinates":[-118.451933,34.01695]}},{"name":"Jigsaw","city":"San Mateo","founded_year":2003,"location":{"type":"Point","coordinates":[-122.291602,37.552806]}},{"name":"Backblaze","city":"Palo Alto","founded_year":2007,"location":{"type":"Point","coordinates":[-122.151198,37.44296]}},{"name":"NetProspex","city":"Waltham","founded_year":2006,"location":{"type":"Point","coordinates":[-71.251069,42.375034]}},{"name":"Ozmo Devices","city":"Palo Alto","founded_year":2004,"location":{"type":"Point","coordinates":[-122.117722,37.446152]}},{"name":"appssavvy","city":"New York","founded_year":2008,"location":{"type":"Point","coordinates":[-73.996876,40.724604]}},